Id,StopID,Name,Lat,Lon,Routes
1002585,1002585,WISCONSIN AVE NW + FESSENDEN ST NW,38.954858,-77.082833,"['30N', '30S', '31', '33']"
1002586,1002586,RIGGS RD NE + N CAPITOL ST NE,38.954876,-77.008307,"['64', 'E4', 'E4/', 'K2', 'K6', 'K6*2']"
1002587,1002587,MISSOURI AVE NW + NEW HAMPSHIRE AVE NW,38.954951,-77.009811,"['E4', 'E4/']"
1002588,1002588,1ST PL NE + RIGGS RD NE,38.955121,-77.004534,"['64', 'E4', 'E4*1', 'K2', 'K6', 'R1', 'R2']"
1002589,1002589,MISSOURI AVE NW + NEW HAMPSHIRE AVE NW,38.955145,-77.009968,"['E4', 'E4*1']"
1002590,1002590,RIGGS RD NE + ROCK CREEK CHURCH RD NE,38.955174,-77.006992,"['64', 'E4', 'E4/', 'K2', 'K6', 'K6*2']"
1002591,1002591,RIGGS RD NE + BLAIR RD NE,38.955279,-77.007154,"['64', 'E4', 'E4*1', 'K2', 'K6']"
1002592,1002592,14TH ST NW + JEFFERSON ST NW,38.955428,-77.033559,"['52', '52*1', '54', '54*1', '59']"
1002593,1002593,CHILLUM PL NE + 11TH ST NE,38.955414,-76.992143,['E4']
1002594,1002594,CHILLUM PL NE + #5312,38.955414,-76.994875,['E4']
1002595,1002595,14TH ST NW + COLORADO AVE NW,38.955584,-77.033301,"['52', '54', '54*S', '59']"
1002596,1002596,COLORADO AVE NW + 14TH ST NW,38.955773,-77.033244,"['52*1', '52/', 'D34']"
1002597,1002597,CONNECTICUT AVE NW + NEBRASKA AVE NW,38.955818,-77.07016,['L2']
1002598,1002598,NEBRASKA AVE NW + CONNECTICUT AVE NW,38.955762,-77.07076,"['D31', 'D32', 'D33', 'D34', 'M4', 'M4/', 'W45']"
1002599,1002599,GEORGIA AVE NW + KENNEDY ST NW,38.956047,-77.027891,"['70', '79']"
1002600,1002600,CHILLUM PL NE + EASTERN AVE NE,38.956122,-76.990411,['E4']
1002601,1002601,CONNECTICUT AVE NW + NEBRASKA AVE NW,38.956105,-77.070582,['L2']
1002602,1002602,KENNEDY ST NW + GEORGIA AVE NW,38.956167,-77.027611,"['E4', 'E4/']"
1002603,1002603,KENNEDY ST NW + 13TH ST NW,38.956164,-77.029882,"['E4', 'E4/']"
1002604,1002604,MISSOURI AVE NW + 2ND ST NW,38.956294,-77.013475,"['E4', 'E4*1']"
1002605,1002605,WESTERN AVE NW + RIVER RD NW,38.956238,-77.091408,['N6']
1002606,1002606,5TH ST NW + KENNEDY ST NW,38.956232,-77.019825,"['62', '63']"
1002607,1002607,KENNEDY ST NW + COLORADO AVE NW,38.956133,-77.032961,"['E4', 'E4/']"
1002608,1002608,KENNEDY ST NW + 9TH ST NW,38.956212,-77.025942,"['E4', 'E4/']"
1002609,1002609,KENNEDY ST NW + 13TH ST NW,38.956289,-77.029553,"['E4', 'E4*1']"
1002610,1002610,KENNEDY ST NW + GEORGIA AVE NW,38.956303,-77.027795,"['E4', 'E4*1']"
1002612,1002612,KENNEDY ST NW + 8TH ST NW,38.956271,-77.024157,"['E4', 'E4/']"
1002613,1002613,KENNEDY ST NW + 9TH ST NW,38.956353,-77.025613,"['E4', 'E4*1']"
1002614,1002614,NEBRASKA AVE NW + CONNECTICUT AVE NW,38.956345,-77.070064,"['D31', 'D33', 'D34', 'M4*1', 'W45']"
1002615,1002615,KENNEDY ST NW + 7TH ST NW,38.956319,-77.022447,"['E4', 'E4/']"
1002616,1002616,KENNEDY ST NW + 8TH ST NW,38.956406,-77.023923,"['E4', 'E4*1']"
1002617,1002617,GEORGIA AVE NW + KENNEDY ST NW,38.956362,-77.028165,"['70', '79*1']"
1002618,1002618,KENNEDY ST NW + 7TH ST NW,38.956457,-77.022187,"['E4', 'E4*1']"
1002619,1002619,KENNEDY ST NW + 5TH ST NW,38.956404,-77.019616,"['E4', 'E4/']"
1002620,1002620,KENNEDY ST NW + 5TH ST NW,38.956513,-77.020159,"['E4', 'E4*1']"
1002621,1002621,KENNEDY ST NW + 4TH ST NW,38.956451,-77.018009,"['E4', 'E4/']"
1002622,1002622,KENNEDY ST NW + 4TH ST NW,38.95657,-77.018064,"['E4', 'E4*1']"
1002623,1002623,KENNEDY ST NW + 3RD ST NW,38.956528,-77.015824,"['E4', 'E4/']"
1002624,1002624,5TH ST NW + KENNEDY ST NW,38.956612,-77.019964,"['62', '62*S1', '63']"
1002625,1002625,CHILLUM PL NE + KENNEDY ST NE,38.956627,-76.998423,['E4']
1002626,1002626,3RD ST NW + KENNEDY ST NW,38.956738,-77.016226,"['E4', 'E4*1']"
1002627,1002627,WISCONSIN AVE NW + HARRISON ST NW,38.956775,-77.083565,"['30N', '30S', '31', '33']"
1002628,1002628,RIGGS RD NE + SOUTH DAKOTA AVE NE,38.957042,-77.001943,"['E4', 'R1', 'R2']"
1002629,1002629,14TH ST NW + LONGFELLOW ST NW,38.957029,-77.033527,"['52', '54', 'D34', 'E4', 'E4/', 'W45']"
1002630,1002630,RIGGS RD NE + SOUTH DAKOTA AVE NE,38.957144,-77.002264,"['E4', 'R1', 'R2', 'R2*2']"
1002631,1002631,14TH ST NW + LONGFELLOW ST NW,38.957197,-77.033334,"['52', '54', '54*S', 'D34', 'E4', 'E4*1', 'W45']"
1002632,1002632,WISCONSIN AVE NW + HARRISON ST NW,38.957267,-77.084064,"['30N', '30S', '31', '33']"
1002633,1002633,5TH ST NW + LONGFELLOW ST NW,38.957436,-77.019869,"['62', '63']"
1002634,1002634,NEW HAMPSHIRE AVE NE + LONGFELLOW ST NE,38.957535,-77.008454,['K6']
1002635,1002635,CONNECTICUT AVE NW + HUNTINGTON ST NW,38.9576,-77.071196,['L2']
1002636,1002636,5TH ST NW + LONGFELLOW ST NW,38.95763,-77.020014,"['62', '62*S1', '63']"
1002637,1002637,NEW HAMPSHIRE AVE NE + LONGFELLOW ST NE,38.957752,-77.008494,"['K6', 'K6*2']"
1002638,1002638,N CAPITOL ST NW + LONGFELLOW ST NW,38.957841,-77.009152,['K2']
1002639,1002639,CONNECTICUT AVE NW + HUNTINGTON ST NW,38.957885,-77.071613,['L2']
1002640,1002640,GEORGIA AVE NW + MADISON ST NW,38.958207,-77.028125,['70']
1002641,1002641,NEBRASKA AVE NW + INGOMAR PL NW,38.958168,-77.068511,"['D31', 'D33', 'D34', 'M4*1', 'W45']"
1002642,1002642,N CAPITOL ST NW + MADISON ST NE,38.95854,-77.008955,['K2']
1002643,1002643,RIGGS RD NE + CHILLUM PL NE,38.958501,-77.001173,"['E4', 'R1', 'R2']"
1002644,1002644,NEBRASKA AVE NW + INGOMAR PL NW,38.9585,-77.06842,"['D31', 'D33', 'D34', 'M4', 'M4/', 'W45']"
1002645,1002645,GEORGIA AVE NW + MADISON ST NW,38.958498,-77.028343,['70']
1002646,1002646,WISCONSIN AVE NW + JENIFER ST NW,38.958509,-77.084706,"['30N', '30S', '31', '33']"
1002647,1002647,5TH ST NW + MADISON ST NW,38.958624,-77.01983,"['62', '63']"
1002648,1002648,WISCONSIN AVE NW + JENIFER ST NW,38.958917,-77.084663,"['30N', '30S', '31', '33']"
1002649,1002649,NEW HAMPSHIRE AVE NE + MADISON ST NE,38.958838,-77.007686,"['K6', 'K6*2']"
1002650,1002650,NEW HAMPSHIRE AVE NE + MADISON ST NE,38.958937,-77.007424,['K6']
1002652,1002652,RIGGS RD NE + CHILLUM PL NE,38.958919,-77.001144,"['E4', 'R1', 'R2', 'R2*2']"
1002653,1002653,NEBRASKA AVE NW + NEVADA AVE NW,38.959246,-77.067583,"['D31', 'D33', 'D34', 'M4*1', 'W45']"
1002654,1002654,14TH ST NW + MONTAGUE ST NW,38.959164,-77.033334,"['52', '54', '54*S', 'D34', 'E4', 'E4*1', 'W45']"
1002655,1002655,NICHOLSON ST NE + 6TH ST NE,38.959313,-76.997641,['E4']
1002656,1002656,14TH ST NW + MONTAGUE ST NW,38.959407,-77.033524,"['52', '54', 'D34', 'E4', 'E4/', 'W45']"
1002657,1002657,CONNECTICUT AVE NW + JOCELYN ST NW,38.959503,-77.07231,['L2']
1002658,1002658,NEBRASKA AVE NW + NEVADA AVE NW,38.959559,-77.06751,"['D31', 'D33', 'D34', 'M4', 'M4/', 'W45']"
1002659,1002659,CONNECTICUT AVE NW + JOCELYN ST NW,38.959795,-77.072724,['L2']
1002661,1002661,5TH ST NW + NICHOLSON ST NW,38.960085,-77.019838,"['62', '63']"
1002662,1002662,BLAIR RD NW + NICHOLSON ST NW,38.960307,-77.0092,['K2']
1002663,1002663,RIGGS RD NE + NICHOLSON ST NE,38.960265,-77.000058,"['E4', 'R1', 'R2', 'R2*2']"
1002664,1002664,5TH ST NW + NICHOLSON ST NW,38.960293,-77.019966,"['62', '62*S1', '63']"
1002666,1002666,14TH ST NW + NICHOLSON ST NW,38.960357,-77.033526,"['52', '54', 'D34', 'E4', 'E4/', 'W45']"
1002667,1002667,14TH ST NW + NICHOLSON ST NW,38.960507,-77.033337,"['52', '54', '54*S', 'D34', 'E4', 'E4*1', 'W45']"
1002668,1002668,NICHOLSON ST NE + RIGGS RD NE,38.96073,-76.998881,['E4']
1002669,1002669,NEBRASKA AVE NW + BROAD BRANCH RD NW,38.960698,-77.066344,"['D31', 'D33', 'D34', 'M4*1', 'W45']"
1002670,1002670,RIGGS RD NE + NICHOLSON ST NE,38.960749,-76.999209,"['R1', 'R2']"
1002671,1002671,NEBRASKA AVE NW + MILITARY RD NW,38.960772,-77.06647,"['D31', 'D33', 'D34', 'M4', 'M4/', 'W45']"
1002672,1002672,CONNECTICUT AVE NW + MILITARY RD NW,38.960878,-77.073103,['L2']
1002673,1002673,BLAIR RD NW + OGLETHORPE ST NW,38.961019,-77.009737,['K2']
1002674,1002674,MILITARY RD NW + 28TH ST NW,38.961081,-77.057242,"['D31', 'D33', 'D34', 'E4', 'E4*1', 'W45']"
1002675,1002675,MILITARY RD NW + 32ND ST NW,38.96096,-77.064211,"['D31', 'D33', 'D34', 'M4*1', 'W45']"
1002676,1002676,MILITARY RD NW + 31ST ST NW,38.960961,-77.062344,"['D31', 'D33', 'D34', 'M4*1', 'W45']"
1002677,1002677,MILITARY RD NW + 27TH ST NW,38.960907,-77.055849,"['D31', 'D33', 'D34', 'E4', 'E4/', 'W45']"
1002678,1002678,MILITARY RD NW + 29TH ST NW,38.960963,-77.058957,"['D31', 'D33', 'D34', 'E4', 'E4/', 'W45']"
1002679,1002679,MILITARY RD NW + 27TH ST NW,38.96114,-77.055996,"['D31', 'D33', 'D34', 'E4', 'E4*1', 'W45']"
1002680,1002680,RIGGS RD NE + 6TH ST NE,38.961095,-76.998916,"['R1', 'R2', 'R2*2']"
1002681,1002681,MILITARY RD NW + 32ND ST NW,38.961086,-77.063751,"['D31', 'D33', 'D34', 'M4', 'M4/', 'W45']"
1002682,1002682,MILITARY RD NW + 31ST ST NW,38.96109,-77.062438,"['D31', 'D33', 'D34', 'M4', 'M4/', 'W45']"
1002683,1002683,5TH ST NW + OGLETHORPE ST NW,38.961228,-77.019837,"['62', '63']"
1002684,1002684,BLAIR RD NW + OGLETHORPE ST NW,38.961262,-77.009681,['K2']
1002685,1002685,CONNECTICUT AVE NW + MILITARY RD NW,38.961197,-77.073543,['L2']
1002686,1002686,14TH ST NW + MISSOURI AVE NW,38.961351,-77.033333,"['52', '54', '54*S', '59', 'D34', 'E4', 'E4*1', 'S2*2', 'W45']"
1002687,1002687,MISSOURI AVE NW + 14TH ST NW SOUTHBOUND,38.961252,-77.033524,"['52', '54', '59', 'D34', 'E4', 'E4/', 'W45']"
1002688,1002688,30TH PL NW + MILITARY RD NW,38.961171,-77.061028,"['E4', 'E4/', 'M4', 'M4/']"
1002689,1002689,MILITARY RD NW + OREGON AVE,38.96158,-77.053209,"['D31', 'D33', 'D34', 'E4', 'E4*1', 'W45']"
1002690,1002690,5TH ST NW + OGLETHORPE ST NW,38.961462,-77.019964,"['62', '62*S1', '63']"
1002691,1002691,GEORGIA AVE NW + ROCK CREEK FORD RD NW,38.961551,-77.028097,"['70', '79*1']"
1002692,1002692,NEW HAMPSHIRE AVE NE + ONEIDA ST NE,38.961788,-77.005504,"['K6', 'K6*2']"
1002693,1002693,NEW HAMPSHIRE AVE NE + ONEIDA ST NE,38.961855,-77.005258,['K6']
1002694,1002694,CONNECTICUT AVE NW + LEGATION ST NW,38.962215,-77.074142,['L2']
1002695,1002695,MISSOURI AVE NW + 16TH ST NW,38.962305,-77.035989,"['D34', 'E4', 'E4/', 'W45']"
1002696,1002696,MISSOURI AVE NW + 16TH ST NW,38.962444,-77.036688,"['D33', 'D34', 'E4', 'E4/', 'W45']"
1002697,1002697,NEW HAMPSHIRE AVE NE + PEABODY ST NE,38.962496,-77.004966,"['K6', 'K6*2']"
1002698,1002698,NEW HAMPSHIRE AVE NE + PEABODY ST NE,38.962572,-77.004729,['K6']
1002699,1002699,KANSAS AVE NW + BLAIR RD NW,38.962562,-77.010458,['K2']
1002700,1002700,5TH ST NW + PEABODY ST NW,38.962567,-77.019837,"['62', '63']"
1002701,1002701,5TH ST NW + PEABODY ST NW,38.962812,-77.019972,"['62', '62*S1', '63']"
1002702,1002702,CONNECTICUT AVE NW + LIVINGSTON ST NW,38.962975,-77.074322,['L2']
1002703,1002703,KANSAS AVE NW + PEABODY ST NW,38.962952,-77.010391,['K2']
1002704,1002704,30TH PL NW + LEGATION ST NW,38.962986,-77.061599,"['E4', 'E4*1', 'M4*1']"
1002705,1002705,WESTERN AVE NW + LIVINGSTON ST NW,38.962983,-77.082808,"['E4', 'E4/', 'L8']"
1002706,1002706,MILITARY RD NW + 16TH ST NW,38.963028,-77.037722,"['D33', 'D34', 'E4', 'E4*1', 'W45']"
1002707,1002707,30TH PL NW + LEGATION ST NW,38.963145,-77.061863,"['E4', 'E4/', 'M4', 'M4/']"
1002708,1002708,CONNECTICUT AVE NW + LIVINGSTON ST NW,38.963242,-77.074742,['L2']
1002709,1002709,WESTERN AVE NW + LIVINGSTON ST NW,38.963339,-77.082605,"['E4', 'E4*1', 'L8']"
1002710,1002710,GEORGIA AVE NW + QUACKENBOS ST NW,38.963602,-77.027705,['70']
1002711,1002711,NEW HAMPSHIRE AVE NE + QUACKENBOS ST NE,38.963585,-77.004159,"['K6', 'K6*2']"
1002712,1002712,NEW HAMPSHIRE AVE NE + QUACKENBOS ST NE,38.963645,-77.003925,['K6']
1002713,1002713,14TH ST NW + FORT STEVENS DR NW,38.963809,-77.033318,"['52', '54', '54*S', '59']"
1002714,1002714,GEORGIA AVE NW + QUACKENBOS ST NW,38.963893,-77.027912,['70']
1002715,1002715,14TH ST NW + FORT STEVENS DR NW,38.964182,-77.033514,"['52', '54', '59']"
1002716,1002716,5TH ST NW + QUINTANA PL NW,38.964324,-77.019838,"['62', '63']"
1002717,1002717,KANSAS AVE NW + CHILLUM PL NW,38.964551,-77.00921,['K2']
1002718,1002718,30TH PL NW + NEBRASKA AVE NW,38.964659,-77.062832,"['E4', 'E4*1', 'M4*1']"
1002719,1002719,30TH PL NW + NEBRASKA AVE NW,38.96448,-77.062855,"['E4', 'E4/', 'M4', 'M4/']"
1002720,1002720,NEW HAMPSHIRE AVE NE + RITTENHOUSE ST NE,38.964636,-77.00319,['K6']
1002721,1002721,CONNECTICUT AVE NW + MCKINLEY ST NW,38.964735,-77.075349,['L2']
1002722,1002722,WESTERN AVE NW + 41ST ST NW,38.964756,-77.080536,"['E4', 'E4/', 'L8']"
1002723,1002723,NEW HAMPSHIRE AVE NE + RITTENHOUSE ST NE,38.964815,-77.003269,"['K6', 'K6*2']"
1002724,1002724,KANSAS AVE NE + CHILLUM PL NE,38.964922,-77.008701,['K2']
1002725,1002725,MCKINLEY ST NW + 32ND ST NW,38.964962,-77.063756,"['E4', 'E4*1']"
1002726,1002726,MCKINLEY ST NW + 33RD ST NW,38.964957,-77.066255,"['E4', 'E4*1']"
1002728,1002728,MCKINLEY ST NW + 39TH ST NW,38.964863,-77.0773,"['E4', 'E4/']"
1002729,1002729,MCKINLEY ST NW + 32ND ST NW,38.964866,-77.064101,"['E4', 'E4/']"
1002730,1002730,MCKINLEY ST NW + CONNECTICUT AVE NW,38.964861,-77.075801,"['E4', 'E4/']"
1002731,1002731,MCKINLEY ST NW + CHEVY CHASE PKY NW,38.964866,-77.071823,"['E4', 'E4/']"
1002732,1002732,MCKINLEY ST NW + 33RD ST NW,38.964872,-77.066576,"['E4', 'E4/']"
1002733,1002733,MCKINLEY ST NW + BROAD BRANCH RD NW,38.964866,-77.067695,"['E4', 'E4/']"
1002734,1002734,MCKINLEY ST NW + NEVADA AVE NW,38.964869,-77.070411,"['E4', 'E4/']"
1002735,1002735,MCKINLEY ST NW + BROAD BRANCH RD NW,38.964962,-77.067837,"['E4', 'E4*1']"
1002736,1002736,MCKINLEY ST NW + WESTERN AVE NW,38.96496,-77.079882,"['E4', 'E4*1']"
1002737,1002737,MCKINLEY ST NW + 39TH ST NW,38.964964,-77.077545,"['E4', 'E4*1']"
1002738,1002738,MCKINLEY ST NW + NEVADA AVE NW,38.964965,-77.069941,"['E4', 'E4*1']"
1002739,1002739,MCKINLEY ST NW + CHEVY CHASE PKY NW,38.964962,-77.071353,"['E4', 'E4*1']"
1002740,1002740,MCKINLEY ST NW + CONNECTICUT AVE NW,38.964971,-77.076264,"['E4', 'E4*1']"
1002741,1002741,MCKINLEY ST NW + CONNECTICUT AVE NW,38.96496,-77.075079,"['E4', 'E4*1']"
1002743,1002743,CONNECTICUT AVE NW + MCKINLEY ST NW,38.965066,-77.075797,['L2']
1002744,1002744,5TH ST NW + RITTENHOUSE ST NW,38.965091,-77.019964,"['62', '62*S1', '63']"
1002745,1002745,GEORGIA AVE NW + RITTENHOUSE ST NW,38.965164,-77.027807,['70']
1002748,1002748,GEORGIA AVE NW + RITTENHOUSE ST NW,38.965272,-77.027569,['70']
1002749,1002749,EASTERN AVE NE + NEW HAMPSHIRE AVE,38.965426,-77.00197,"['F1', 'F2', 'F2*1']"
1002750,1002750,14TH ST NW + SHERIDAN ST NW,38.966003,-77.033321,"['52', '54', '54*S']"
1002751,1002751,N CAPITOL ST NE + SHERIDAN ST NW,38.966194,-77.009126,['K2']
1002752,1002752,14TH ST NW + SHERIDAN ST NW,38.966307,-77.033521,"['52', '54']"
1002753,1002753,5TH ST NW + SHERIDAN ST NW,38.966507,-77.019837,"['62', '63']"
1002754,1002754,CHEVY CHASE TERMINAL + CONNECTICUT AVE NW,38.966529,-77.07712,['L2']
1002755,1002755,WESTERN AVE NW + OLIVER ST NW,38.9666,-77.078209,['L8']
1002756,1002756,NEBRASKA AVE NW + UTAH AVE NW,38.966915,-77.061009,['M4*1']
1002757,1002757,NEBRASKA AVE NW + OLIVER ST NW,38.966792,-77.061313,"['M4', 'M4/']"
1002758,1002758,5TH ST NW + SOMERSET PL NW,38.966809,-77.019961,"['62', '63']"
1002761,1002761,KANSAS AVE NE + TUCKERMAN ST NE,38.967179,-77.007036,['K2']
1002762,1002762,GEORGIA AVE NW + TUCKERMAN ST NW,38.967175,-77.0274,"['70', '79']"
1002763,1002763,EASTERN AVE NE + 5TH AVE,38.967222,-77.004295,"['F1', 'F2', 'F2*1']"
1002764,1002764,14TH ST NW + TUCKERMAN ST NW,38.967405,-77.03332,"['52', '54', '54*S']"
1002765,1002765,EASTERN AVE NE + TUCKERMAN ST NE,38.967475,-77.004846,"['F1', 'F2']"
1002766,1002766,N CAPITOL ST NE + TUCKERMAN ST NW,38.967514,-77.009134,['K2']
1002767,1002767,GEORGIA AVE NW + PINEY BRANCH RD NW,38.967722,-77.027576,"['70', '79*1']"
1002768,1002768,14TH ST NW + TUCKERMAN ST NW,38.967746,-77.033521,"['52', '54']"
1002769,1002769,UTAH AVE NW + PATTERSON PL NW,38.968128,-77.061223,['M4*1']
1002770,1002770,KANSAS AVE NE + EASTERN AVE NE,38.968235,-77.006256,['K2']
1002771,1002771,UTAH AVE NW + PATTERSON PL NW,38.968111,-77.061391,"['M4', 'M4/']"
1002772,1002772,EASTERN AVE NE + KANSAS AVE NE,38.968277,-77.005868,"['F1', 'F2']"
1002774,1002774,EASTERN AVE NE + KANSAS LN,38.968511,-77.005948,"['F1', 'F2', 'F2*1']"
1002775,1002775,5TH ST NW + UNDERWOOD ST NW,38.968514,-77.019834,"['62', '63']"
1002776,1002776,N CAPITOL ST NW + UNDERWOOD PL NW,38.968786,-77.009124,['K2']
1002777,1002777,5TH ST NW + UNDERWOOD ST NW,38.968778,-77.019959,"['62', '63']"
1002779,1002779,GEORGIA AVE NW + UNDERWOOD ST NW,38.968944,-77.027242,['70']
1002780,1002780,14TH ST NW + UNDERWOOD ST NW,38.969147,-77.033521,"['52', '54']"
1002781,1002781,14TH ST NW + UNDERWOOD ST NW,38.969173,-77.033328,"['52', '54', '54*S']"
1002783,1002783,UTAH AVE NW + RITTENHOUSE ST NW,38.969645,-77.061807,['M4*1']
1002784,1002784,UTAH AVE NW + RITTENHOUSE ST NW,38.969541,-77.061921,"['M4', 'M4/']"
1002787,1002787,GEORGIA AVE NW + VAN BUREN ST NW,38.970027,-77.027377,['70']
1002789,1002789,GEORGIA AVE NW + VAN BUREN ST NW,38.970258,-77.027126,['70']
1002790,1002790,14TH ST NW + WHITTIER ST NW,38.970541,-77.033515,"['52', '54']"
1002791,1002791,UTAH AVE NW + 31ST ST NW,38.970676,-77.062547,['M4*1']
1002792,1002792,UTAH AVE NW + 31ST ST NW,38.970723,-77.062765,"['M4', 'M4/']"
1002793,1002793,14TH ST NW + WHITTIER ST NW,38.970897,-77.033323,"['52', '54', '54*S']"
1002794,1002794,5TH ST NW + WHITTIER ST NW,38.971046,-77.019961,"['62', '63']"
1002795,1002795,5TH ST NW + WHITTIER ST NW,38.971165,-77.019835,"['62', '63']"
1002796,1002796,UTAH AVE NW + 31ST PL NW,38.971446,-77.063091,['M4*1']
1002797,1002797,EASTERN AVE NW + WHITTIER ST NW,38.971441,-77.009828,"['F1', 'F2', 'K2']"
1002801,1002801,UTAH AVE NW + 31ST PL NW,38.971558,-77.063362,"['M4', 'M4/']"
1002803,1002803,14TH ST NW + ASPEN ST NW,38.971958,-77.033321,"['52', '54', '54*S', '54*S/', '59']"
1002804,1002804,14TH ST NW + ASPEN ST NW,38.971947,-77.033519,"['52', '54', '59']"
1002807,1002807,ASPEN ST NW + 13TH PL NW,38.972206,-77.027849,"['52', '54', '54*S', '54*S/', '59']"
1002808,1002808,ASPEN ST NW + 13TH ST NW,38.972214,-77.029843,"['52', '54', '54*S', '54*S/']"
1002809,1002809,ASPEN ST NW + GEORGIA AVE NW,38.972324,-77.027771,"['52', '54']"
1002810,1002810,ASPEN ST NW + 13TH ST NW,38.97233,-77.029579,"['52', '54']"
1002812,1002812,EASTERN AVE NW + WALNUT ST NW,38.972511,-77.011118,"['F1', 'F2', 'K2']"
1002813,1002813,UTAH AVE NW + TENNYSON ST NW,38.972716,-77.064,['M4*1']
1002816,1002816,UTAH AVE NW + TENNYSON ST NW,38.972969,-77.06437,"['M4', 'M4/']"
1002817,1002817,GEORGIA AVE NW + SOUTHBOUND  BUTTERNUT ST ,38.973206,-77.027054,"['52', '54', '59', '70', '79*1']"
1002818,1002818,5TH ST NW + BUTTERNUT ST NW,38.973292,-77.019965,"['62', '63']"
1002819,1002819,5TH ST NW + BUTTERNUT ST NW,38.973467,-77.019831,"['62', '63']"
1002821,1002821,BUTTERNUT ST NW + PINEY BRANCH RD NW,38.973548,-77.023157,"['52', '54', '54*S', '54*S/']"
1002822,1002822,BUTTERNUT ST NW + 8TH ST NW,38.973694,-77.024322,"['52', '54']"
1002825,1002825,4TH ST NW + BUTTERNUT ST NW,38.973892,-77.018112,"['52', '54', '62', '63']"
1002827,1002827,EASTERN AVE NW + LAUREL ST NW,38.973939,-77.012968,"['F1', 'F2', 'K2']"
1002830,1002830,UTAH AVE NW + VAN HAZEN ST NW,38.974959,-77.065614,['M4*1']
1002831,1002831,UTAH AVE NW + VAN HAZEN ST NW,38.975072,-77.065866,"['M4', 'M4/']"
1002833,1002833,PINEHURST CIR NW + 33RD ST NW,38.975443,-77.066496,"['M4', 'M4/']"
1002834,1002834,GEORGIA AVE NW + DAHLIA ST NW,38.975673,-77.026561,['70']
1002835,1002835,TAKOMA STATION + BUS BAY C,38.975887,-77.017174,"['52', '54', '54*S', '54*S/']"
1002836,1002836,GEORGIA AVE NW + DAHLIA ST NW,38.975994,-77.026758,['70']
1002840,1002840,GEORGIA AVE NW + FERN ST NW,38.977817,-77.026332,['70']
1002844,1002844,GEORGIA AVE NW + GERANIUM ST NW,38.979149,-77.026578,['70']
1002845,1002845,GEORGIA AVE NW + GERANIUM ST NW,38.979723,-77.026363,['70']
1002852,1002852,GEORGIA AVE NW + HEMLOCK ST NW,38.981307,-77.026415,['70']
1002853,1002853,GEORGIA AVE NW + HEMLOCK ST NW,38.981361,-77.026646,['70']
1002857,1002857,GEORGIA AVE NW + JUNIPER ST NW,38.982824,-77.026674,['70']
1002858,1002858,GEORGIA AVE NW + JUNIPER ST NW,38.982977,-77.02645,['70']
1002862,1002862,16TH ST NW + BUCHANAN ST NW,38.946267,-77.036527,"['D33', 'S2*1', 'S2*2', 'S9', 'W45']"
1002863,1002863,16TH ST NW + ALLISON ST NW,38.944848,-77.036524,"['D33', 'S2*1', 'S2*2', 'W45']"
1002864,1002864,16TH ST NW + VARNUM ST NW,38.943053,-77.036527,"['D33', 'S2*1', 'S2*2', 'W45']"
1002865,1002865,16TH ST NW + UPSHUR ST NW,38.94164,-77.036534,"['D33', 'S2*1', 'S2*2', 'W45']"
1002867,1002867,16TH ST NW + #3636,38.936634,-77.036563,"['S2*1', 'S2*2', 'S9']"
1002868,1002868,16TH ST NW + OAK ST NW,38.935108,-77.036549,"['S2*1', 'S2*2']"
1002869,1002869,16TH ST NW + NEWTON ST NW,38.93305,-77.036574,"['S2*1', 'S2*2']"
1002870,1002870,16TH ST NW + PARK RD NW,38.93136,-77.036572,"['S2*1', 'S2*2', 'S9']"
1002871,1002871,16TH ST NW + LAMONT ST NW,38.93016,-77.036568,"['S2*1', 'S2*2']"
1002872,1002872,16TH ST NW + IRVING ST NW,38.927948,-77.036588,"['S2*1', 'S2*2', 'S9']"
1002873,1002873,16TH ST NW + HARVARD ST NW,38.925652,-77.03658,"['S2*1', 'S2*2']"
1002874,1002874,16TH ST NW + EUCLID ST NW,38.923541,-77.036597,"['S2*1', 'S2*2', 'S9']"
1002875,1002875,16TH ST NW + CRESCENT PL NW,38.92107,-77.036598,"['S2*1', 'S2*2']"
1002876,1002876,16TH ST NW + V ST NW,38.918296,-77.036616,"['S2*1', 'S2*2']"
1002877,1002877,16TH ST NW + U ST NW,38.916537,-77.036626,"['S2*1', 'S2*2', 'S9']"
1002879,1002879,16TH ST NW + CORCORAN ST NW,38.912084,-77.03663,"['S2*1', 'S2*2']"
1002880,1002880,16TH ST NW + P ST NW,38.909825,-77.036622,"['S2*1', 'S2*2', 'S9']"
1002881,1002881,16TH ST NW + M ST NW,38.905248,-77.036654,"['S2*1', 'S2*2', 'S9']"
1002883,1002883,EASTERN AVE NW + 16TH ST NW,38.991617,-77.035771,['S2*1']
1002884,1002884,EASTERN AVE NW + NORTHGATE RD NW,38.990046,-77.033769,['S2*1']
1002885,1002885,EASTERN AVE NW + 14TH ST NW,38.988082,-77.031253,['S2*1']
1002886,1002886,EASTERN AVE NW + 13TH ST NW,38.986644,-77.029416,['S2*1']
1002887,1002887,EASTERN AVE NW + 12TH ST NW,38.985144,-77.027518,['S2*1']
1002888,1002888,ALASKA AVE NW + KALMIA RD NW,38.983585,-77.02722,['S2*1']
1002889,1002889,ALASKA AVE NW + HEMLOCK ST NW,38.981459,-77.029462,['S2*1']
1002890,1002890,ALASKA AVE NW + GERANIUM ST NW,38.979562,-77.031471,['S2*1']
1002891,1002891,ALASKA AVE NW + 14TH ST NW,38.977905,-77.033219,['S2*1']
1002892,1002892,ALASKA AVE NW + DAHLIA ST NW,38.975983,-77.03524,['S2*1']
1002893,1002893,ALASKA AVE NW + 16TH ST NW,38.975276,-77.035995,['S2*1']
1002894,1002894,16TH ST NW + MAIN DR,38.972724,-77.036514,"['D31', 'S2*1', 'S9']"
1002895,1002895,16TH ST NW + WHITTIER PL NW,38.971311,-77.036469,"['D31', 'S2*1']"
1002896,1002896,16TH ST NW + VAN BUREN ST NW,38.969822,-77.036475,"['D31', 'S2*1']"
1002897,1002897,16TH ST NW + TUCKERMAN ST NW,38.96794,-77.036472,"['D31', 'S2*1']"
1002898,1002898,16TH ST NW + SHERIDAN ST NW,38.96627,-77.036475,"['D31', 'S2*1', 'S9']"
1002899,1002899,16TH ST NW + FORT STEVENS DR NW,38.96495,-77.036484,"['D31', 'S2*1']"
1002900,1002900,16TH ST NW + MILITARY RD NW,38.963552,-77.036484,"['D31', 'S2*1']"
1002901,1002901,16TH ST NW + MISSOURI AVE NW,38.961965,-77.036489,"['D33', 'S2*1', 'S2*2', 'S9']"
1002902,1002902,16TH ST NW + NICHOLSON ST NW,38.960305,-77.036496,"['D33', 'S2*1', 'S2*2']"
1002903,1002903,16TH ST NW + MADISON ST NW,38.95861,-77.036493,"['D33', 'S2*1', 'S2*2']"
1002904,1002904,16TH ST NW + MORROW DR,38.955894,-77.036503,"['D33', 'S2*1', 'S2*2']"
1002905,1002905,16TH ST NW + COLORADO AVE NW,38.952725,-77.036507,"['D33', 'S2*1', 'S2*2', 'S9']"
1002906,1002906,16TH ST NW + BLAGDEN AVE NW,38.95021,-77.036512,"['D33', 'S2*1', 'S2*2', 'W45']"
1002907,1002907,16TH ST NW + DECATUR ST NW,38.947883,-77.036524,"['D33', 'S2*1', 'S2*2', 'W45']"
1002911,1002911,16TH ST NW + L ST NW,38.903576,-77.036428,['S2']
1002913,1002913,16TH ST NW + R ST NW,38.91292,-77.036399,['S2']
1002914,1002914,16TH ST NW + V ST NW,38.918403,-77.036366,['S2']
1002915,1002915,16TH ST NW + EUCLID ST NW,38.923077,-77.036383,"['S2', 'S9']"
1002916,1002916,16TH ST NW + WEBSTER ST NW,38.943756,-77.036332,"['D33', 'S2', 'W45']"
1002917,1002917,16TH ST NW + ALLISON ST NW,38.944942,-77.03633,"['D33', 'S2', 'W45']"
1002918,1002918,16TH ST NW + COLORADO AVE NW,38.953035,-77.03631,"['D33', 'S2', 'S9']"
1002919,1002919,16TH ST NW + KENNEDY ST,38.956067,-77.036294,"['D33', 'S2']"
1002920,1002920,16TH ST NW + MADISON ST NW,38.958241,-77.036294,"['D33', 'S2']"
1002921,1002921,16TH ST NW + NICHOLSON ST NW,38.960096,-77.036287,"['D33', 'S2']"
1002922,1002922,16TH ST NW + MISSOURI AVE NW,38.962255,-77.036292,"['D33', 'S2', 'S9']"
1002923,1002923,16TH ST NW + FORT STEVENS DR NW,38.964582,-77.036278,"['D31', 'S2']"
1002924,1002924,16TH ST NW + SOMERSET PL NW,38.966719,-77.036276,"['D31', 'S2', 'S9']"
1002925,1002925,16TH ST NW + UNDERWOOD ST NW,38.968952,-77.036278,"['D31', 'S2']"
1002926,1002926,16TH ST NW + WHITTIER ST NW,38.97058,-77.036266,"['D31', 'S2']"
1002927,1002927,16TH ST NW + MAIN DR,38.972935,-77.03627,"['D31', 'S2', 'S9']"
1002928,1002928,ALASKA AVE NW + 16TH ST NW,38.975127,-77.035928,['S2']
1002929,1002929,ALASKA AVE NW + DAHLIA ST NW,38.975999,-77.035013,['S2']
1002930,1002930,ALASKA AVE NW + FERN ST NW,38.9779,-77.033011,['S2']
1002931,1002931,ALASKA AVE NW + GERANIUM ST NW,38.979227,-77.031607,['S2']
1002932,1002932,ALASKA AVE NW + 13TH ST NW,38.980907,-77.029842,['S2']
1002933,1002933,ALASKA AVE NW + 12TH ST NW,38.982624,-77.028025,['S2']
1002934,1002934,ALASKA AVE NW + KALMIA RD NW,38.983384,-77.027221,['S2']
1002935,1002935,EASTERN AVE NW + 16TH ST NW,38.991651,-77.035567,['S2']
1002936,1002936,16TH ST NW + PRIMROSE RD NW,38.989028,-77.036439,"['D31', 'S9']"
1002937,1002937,16TH ST NW + MYRTLE ST,38.987555,-77.036451,"['D31', 'S9']"
1002938,1002938,16TH ST NW + KALMIA RD NW,38.985439,-77.036442,"['D31', 'S9']"
1002939,1002939,16TH ST NW + JUNIPER ST NW,38.983348,-77.036448,"['D31', 'S9']"
1002940,1002940,16TH ST NW + HOLLY ST NW,38.980958,-77.036445,"['D31', 'S9']"
1002941,1002941,16TH ST NW + GERANIUM ST NW,38.97925,-77.036451,['D31']
1002942,1002942,16TH ST NW + ALASKA AVE NW,38.975198,-77.036467,"['D31', 'S9']"
1002943,1002943,16TH ST NW + ALASKA AVE NW,38.975252,-77.036257,"['D31', 'S9']"
1002944,1002944,16TH ST NW + GERANIUM ST NW,38.979245,-77.036236,['D31']
1002945,1002945,16TH ST NW + HEMLOCK ST NW,38.981234,-77.036251,"['D31', 'S9']"
1002946,1002946,16TH ST NW + JUNIPER ST NW,38.983027,-77.036239,"['D31', 'S9']"
1002947,1002947,16TH ST NW + KALMIA RD NW,38.985481,-77.036233,"['D31', 'S9']"
1002948,1002948,16TH ST NW + LEEGATE RD,38.987089,-77.036244,"['D31', 'S9']"
1002949,1002949,16TH ST NW + PRIMROSE RD NW,38.988782,-77.03623,"['D31', 'S9']"
1002950,1002950,16TH ST NW + PORTAL DR NW,38.990477,-77.03623,['D31']
1002952,1002952,ANACOSTIA STATION + BUS BAY C,38.862063,-76.995943,"['P6', 'P6*2', 'P6/*1']"
1002953,1002953,ANACOSTIA STATION + BUS BAY B,38.862162,-76.99614,"['B2', 'B2*1', 'B2*S1', 'B2/']"
1002954,1002954,MINNESOTA AVE STATION + BUS BAY A,38.89853,-76.946829,['U4']
1002956,1002956,DEANWOOD STATION + BUS BAY A,38.908055,-76.93491,"['W4', 'W4*1', 'W4/']"
1002957,1002957,DEANWOOD STATION + BUS BAY B,38.907927,-76.935081,"['U7', 'U7*1', 'U7/']"
1002958,1002958,RHODE ISLAND AVE STATION + BUS BAY E,38.919826,-76.996231,"['83', '83*1', '83/', '86']"
1002960,1002960,BROOKLAND-CUA STATION + BUS BAY B,38.933312,-76.99416,"['H2', 'H4']"
1002961,1002961,BROOKLAND-CUA STATION + BUS BAY G,38.933608,-76.99387,['H8']
1002962,1002962,SHERIDAN RD SE + MARTIN LUTHER KING JR AVE SE,38.860917,-76.993746,['W8']
1002963,1002963,MINNESOTA AVE NE + 48TH ST NE,38.907924,-76.934123,"['R12', 'R12*1', 'U7', 'U7/', 'V14', 'V14/', 'W4', 'W4/']"
1002964,1002964,RHODE ISLAND AVE NE + 10TH ST NE,38.922256,-76.992628,"['83', '83/', '86', 'D8', 'H8', 'H9', 'S41']"
1002965,1002965,PENNSYLVANIA AVE SE + POTOMAC AVE SE,38.880215,-76.984726,"['B2', 'B2*S2', 'B2/', 'V4']"
1002966,1002966,INDEPENDENCE AVE SW + 14TH ST SW,38.887459,-77.030867,"['52', '52*1']"
1002973,1002973,14TH ST NW + D ST,38.894202,-77.03179,"['16E', '52', '52/']"
1002975,1002975,POMEROY RD SE + #2500,38.855292,-76.989935,['W6']
1002976,1002976,HUNTER PL SE + BANGOR ST SE,38.860377,-76.983603,['W6']
1002977,1002977,STADIUM-ARMORY STATION + BUS BAY D,38.888621,-76.977133,"['96', '96/*1']"
1002979,1002979,15TH ST NE + ISHERWOOD ST NE,38.895288,-76.983584,"['B2', 'B2*S2', 'B2/']"
1002980,1002980,NEW HAMPSHIRE AVE NW + OTIS PL NW,38.933878,-77.025976,"['63', '64', 'H8']"
1002981,1002981,NEW HAMPSHIRE AVE NW + GEORGIA AVE NW,38.935927,-77.024458,"['64', 'H8']"
1002983,1002983,ROCK CREEK CHURCH RD NW + WARDER ST NW,38.936954,-77.021525,['H8']
1002984,1002984,ROCK CREEK CHURCH RD NW + PARK PL NW,38.937301,-77.019255,['H8']
1002985,1002985,ROCK CREEK CHURCH RD NW + 3RD ST NW,38.939641,-77.015294,['H8']
1002986,1002986,ROCK CREEK CHURCH RD NW + UPSHUR DR NW,38.941916,-77.013482,['H8']
1002987,1002987,ROCK CREEK CHURCH RD NW + 4TH ST NW,38.938347,-77.016772,['H8']
1002995,1002995,POMEROY RD SE + #2575,38.855585,-76.991163,['W6']
1002996,1002996,SHERIDAN RD SE + SUITLAND PKY SE,38.858033,-76.993313,['W8']
1002997,1002997,POMEROY RD SE + #2551-2576,38.855475,-76.991022,['W8']
1002998,1002998,25TH ST SE + #3417,38.847479,-76.969122,"['30S', '32', '32*1', 'A32']"
1002999,1002999,25TH ST SE + SOUTHERN AVE,38.84598,-76.969831,"['30S', '32', '32*1', 'A32']"
1003000,1003000,CONDON TER SE + PEPCO POLE,38.8328,-76.998251,"['A2', 'A2*1']"
1003001,1003001,M ST SW + HALF ST SW,38.876593,-77.010077,"['P6', 'P6/*1']"
1003003,1003003,MILITARY RD NW + GLOVER RD,38.961658,-77.052189,"['D31', 'D33', 'D34', 'E4', 'E4/', 'W45']"
1003004,1003004,KENNEDY ST NW + COLORADO AVE NW,38.956294,-77.032963,"['E4', 'E4*1']"
1003005,1003005,WEST VIRGINIA AVE NE + 17TH ST NE,38.916438,-76.978937,['E2']
1003006,1003006,18TH ST NE + BRYANT ST NE,38.921177,-76.978926,['E2']
1003007,1003007,18TH ST NE + HAMLIN ST NE,38.928477,-76.97918,['E2']
1003008,1003008,AINGER PL SE + BRUCE PL SE,38.857835,-76.97305,"['W2', 'W2*3', 'W2*4', 'W2*6', 'W3', 'W3*1']"
1003009,1003009,EDGEWOOD ST NE + #625,38.924819,-76.996533,['G8']
1003011,1003011,STANTON RD SE + SUITLAND PKY SE,38.852744,-76.98268,['W6']
1003014,1003014,MARTIN LUTHER KING JR AVE SE + EATON RD SE,38.858305,-76.995669,"['A2', 'A2*1', 'A2/*S', 'A4', 'A4*1', 'A4/', 'A4/*2', 'A6', 'A7', 'A8', 'W2', 'W2*3', 'W2*4', 'W2*6', 'W3', 'W3*1']"
1003015,1003015,CONGRESS ST SE + 13TH PL SE,38.842174,-76.987014,"['W2', 'W2*3', 'W2*4', 'W2*6', 'W3', 'W3*1']"
1003022,1003022,HAYES ST NE + #3704-3710,38.904421,-76.951672,"['U7', 'U7*1', 'U7/']"
1003023,1003023,MAYFAIR TER NE + #3592-3598,38.905806,-76.952839,"['U7', 'U7*1', 'U7/']"
1003024,1003024,MAYFAIR TER NE + #3576-3582,38.907046,-76.952461,"['U7', 'U7*1', 'U7/']"
1003025,1003025,MAYFAIR TER NE + #3547-3553,38.907492,-76.951023,"['U7', 'U7*1', 'U7/']"
1003026,1003026,MAYFAIR TER NE + #3531-3537,38.906863,-76.94976,"['U7', 'U7*1', 'U7/']"
1003027,1003027,MAYFAIR TER NE + #3675-3691,38.905761,-76.949287,"['U7', 'U7*1', 'U7/']"
1003028,1003028,KENILWORTH TER NE + #776-778,38.9016,-76.946494,"['U7', 'U7*1', 'U7/']"
1003029,1003029,HAYES ST NE + ANACOSTIA AVE NE,38.902571,-76.949496,"['U7', 'U7*1', 'U7/']"
1003030,1003030,TEXAS AVE SE + E CAPITOL ST SE,38.889035,-76.9388,"['U5', 'U6']"
1003031,1003031,TEXAS AVE SE + E CAPITOL ST SE,38.889021,-76.939078,"['U5', 'U6']"
1003032,1003032,M ST SE + HALF ST SE,38.87639,-77.007041,"['P6', 'P6*2']"
1003033,1003033,PENNSYLVANIA AVE NW + 7TH ST NW,38.893256,-77.022261,"['30N', '30S', '32', '36']"
1003034,1003034,ALABAMA AVE SE + AINGER PL SE,38.856206,-76.969888,"['30S', '32', '92', '92/', 'D51', 'V7', 'W2', 'W2*1', 'W2*4', 'W3', 'W3*1', 'W4', 'W4*1', 'W8']"
1003035,1003035,ALABAMA AVE SE + HARTFORD ST SE,38.854332,-76.969865,"['30S', '32', '92', '92/', 'D51', 'V7', 'W2', 'W2*1', 'W2*4', 'W3', 'W3*1', 'W4', 'W4*1', 'W8']"
1003036,1003036,STANTON RD SE + SUITLAND PKY SE,38.853673,-76.983868,['W8']
1003037,1003037,14TH ST NW + MONROE ST NW,38.93117,-77.032651,"['52', '52/', '54', '54*S', '59']"
1003038,1003038,30TH ST SE + NAYLOR RD SE,38.855103,-76.965616,"['30N', '36']"
1003039,1003039,30TH ST SE + ERIE ST SE,38.857075,-76.964596,"['30N', '36']"
1003040,1003040,14TH ST NW + HARVARD ST NW,38.92624,-77.032471,"['52', '52*1', '54', '54*1']"
1003043,1003043,NEW HAMPSHIRE AVE NW + 7TH ST NW,38.940433,-77.021434,['64']
1003044,1003044,NEW HAMPSHIRE AVE NW + 8TH ST NW,38.938342,-77.022958,['64']
1003045,1003045,PARK RD NW + 11TH ST NW,38.93194,-77.028103,"['64', 'H8']"
1003046,1003046,11TH ST NW + LAMONT ST NW,38.930355,-77.028013,"['64', 'H8']"
1003047,1003047,11TH ST NW + IRVING ST NW,38.928471,-77.027547,"['64', 'H8']"
1003048,1003048,11TH ST NW + HARVARD ST NW,38.926527,-77.027133,['64']
1003049,1003049,11TH ST NW + FAIRMONT ST NW,38.92452,-77.027133,['64']
1003050,1003050,11TH ST NW + CLIFTON ST NW,38.922548,-77.027136,['64']
1003054,1003054,NEW HAMPSHIRE AVE NW + RANDOLPH ST NW,38.938584,-77.022485,['64']
1003055,1003055,NEW HAMPSHIRE AVE NW + SHEPHERD ST NW,38.93965,-77.02169,['64']
1003056,1003056,NEW HAMPSHIRE AVE NW + TAYLOR ST NW,38.940835,-77.020819,['64']
1003057,1003057,SHERIDAN ST NW + 4TH ST NW,38.966197,-77.019285,['62*S1']
1003062,1003062,N CAPITOL ST NW + P ST NW,38.909436,-77.009183,"['80', '80*1', '80/', '80/*1', 'P6']"
1003063,1003063,VIRGINIA AVE NW + G ST NW,38.898156,-77.051688,"['80', '80*1']"
1000001,1000001,SHEPHERD PKY SW + SHEPHERD PKY SW,38.816082,-77.017741,"['A4', 'A4*3', 'W5']"
1000003,1000003,SHEPHERD PKY SW + DC VILLAGE LN,38.816293,-77.018108,"['A4', 'A4*1', 'W5']"
1000004,1000004,MARTIN LUTHER KING JR AVE SW + JOLIET ST SW,38.819634,-77.01082,"['A4', 'A4*1', 'A4*3', 'A4*4', 'W1']"
1000005,1000005,SHEPHERD PKY SW + FIRE DEPARTMENT TRAINING CENTER,38.82002,-77.016604,"['A4', 'A4*3', 'W5']"
1000006,1000006,SHEPHERD PKY SW + FIRE DEPARTMENT TRAINING CENTER,38.820414,-77.016606,"['A4', 'A4*1', 'W5']"
1000007,1000007,IRVINGTON ST SW + MARTIN LUTHER KING JR AVE SW,38.820388,-77.010572,"['A4', 'A4*1', 'A4*3', 'A4/', 'A4/*2', 'W1']"
1000008,1000008,IRVINGTON ST SW + IVANHOE ST SW,38.820729,-77.008344,"['A4', 'A4*1', 'A4*3', 'A4/', 'A4/*2', 'W1']"
1000009,1000009,SOUTHERN AVE SE + S CAPITOL ST SE,38.82159,-77.001061,['A7']
1000010,1000010,MARTIN LUTHER KING JR AVE SW + #4660,38.822485,-77.011313,"['A4', 'A4*1', 'A4*3', 'A4*4', 'W1']"
1000012,1000012,MARTIN LUTHER KING JR AVE SW + BLUE PLAINS DR SW,38.822488,-77.011495,"['A4', 'A4*1', 'A4*3', 'A4/', 'A4/*2', 'W1']"
1000013,1000013,OVERLOOK AVE SW + SHEPHERD PKY SW,38.823008,-77.017282,"['A4', 'A4*3', 'W5']"
1000014,1000014,6TH ST SE + SOUTHERN AVE SE,38.823177,-76.999459,"['A6', 'A6*1', 'A8', 'A8*1']"
1000015,1000015,OVERLOOK AVE SW + LABORATORY RD,38.823276,-77.017493,"['A4', 'A4*1', 'W5']"
1000016,1000016,MARTIN LUTHER KING JR AVE SW + GALVESTON ST SW,38.823428,-77.011729,"['A4', 'A4*1', 'A4*3', 'A4*4', 'W1']"
1000017,1000017,3RD ST SE + LIVINGSTON RD SE,38.824075,-77.001948,"['A6', 'A6*1', 'A8', 'A8*1']"
1000018,1000018,MARTIN LUTHER KING JR AVE SW + GALVESTON PL SW,38.824269,-77.012272,"['A4', 'A4*1', 'A4*3', 'A4/', 'A4/*2', 'W1']"
1000019,1000019,S CAPITOL ST SE + GALVESTON ST SW,38.82428,-77.006254,['A8']
1000020,1000020,S CAPITOL ST SE + 1ST ST SE,38.824325,-77.006056,"['A8', 'A8*1']"
1000023,1000023,6TH ST SE + GALVESTON PL SE,38.824779,-76.999253,"['A6', 'A6*1', 'A8', 'A8*1']"
1000024,1000024,MARTIN LUTHER KING JR AVE SW + FORRESTER ST SW,38.825058,-77.012391,"['A4', 'A4*1', 'A4*3', 'A4*4', 'W1']"
1000025,1000025,3RD ST SE + #4501,38.825049,-77.001506,"['A6', 'A6*1', 'A8', 'A8*1']"
1000026,1000026,S CAPITOL ST SE + FORRESTER ST SW,38.825303,-77.006939,['A8']
1000027,1000027,S CAPITOL ST SE + FORRESTER ST SE,38.825412,-77.006822,"['A8', 'A8*1']"
1000028,1000028,MARTIN LUTHER KING JR AVE SW + ELMIRA ST SW,38.825792,-77.01267,"['A4', 'A4*1', 'A4*3', 'A4/', 'A4/*2', 'W1']"
1000029,1000029,6TH ST SE + DARRINGTON ST SE,38.82625,-76.998483,"['A6', 'A6*1', 'A8', 'A8*1']"
1000030,1000030,LIVINGSTON TER SE + #304,38.826732,-77.001202,"['A6', 'A6*1', 'A8', 'A8*1']"
1000031,1000031,MARTIN LUTHER KING JR AVE SW + DARRINGTON ST SW,38.8268,-77.012473,"['A4', 'A4*1', 'A4*3', 'A4*4', 'W1']"
1000032,1000032,MARTIN LUTHER KING JR AVE SW + DARRINGTON ST SW,38.827165,-77.01267,"['A4', 'A4*1', 'A4*3', 'A4/', 'A4/*2', 'W1']"
1000033,1000033,S CAPITOL ST SE + DANBURY ST SW,38.827512,-77.007759,['A8']
1000034,1000034,OVERLOOK AVE SW + MAGAZINE RD,38.827875,-77.017446,"['A4', 'A4*1', 'W5']"
1000035,1000035,S CAPITOL ST SW + DANBURY ST SE,38.828105,-77.007588,"['A8', 'A8*1']"
1000036,1000036,CHESAPEAKE ST SW + 2ND ST SW,38.828493,-77.01365,"['A4', 'A4*3']"
1000037,1000037,CHESAPEAKE ST SW + 2ND ST SW,38.828609,-77.013712,"['A4', 'A4*1']"
1000038,1000038,4TH ST SE + CHESAPEAKE ST SE,38.828693,-77.000635,"['A6', 'A6*1', 'A8', 'A8*1']"
1000039,1000039,MARTIN LUTHER KING JR AVE SW + CHESAPEAKE ST SW,38.828871,-77.012461,"['A4', 'A4*1', 'A4*3', 'A4*4', 'W1']"
1000040,1000040,MARTIN LUTHER KING JR AVE SW + CHESAPEAKE ST SW,38.828896,-77.012639,"['A4', 'A4*1', 'A4/', 'A4/*2', 'W1']"
1000041,1000041,6TH ST SE + CHESAPEAKE ST SE,38.829065,-76.998432,"['A6', 'A6*1', 'A8', 'A8*1']"
1000042,1000042,S CAPITOL ST SW + BRANDYWINE ST SE,38.830019,-77.007769,['A8']
1000043,1000043,S CAPITOL ST SW + BRANDYWINE ST SE,38.83005,-77.007592,"['A8', 'A8*1']"
1000044,1000044,MARTIN LUTHER KING JR AVE SW + BRANDYWINE PL SW,38.830205,-77.011443,"['A4', 'A4*1', 'A4*3', 'A4*4', 'W1']"
1000045,1000045,MARTIN LUTHER KING JR AVE SW + BRANDYWINE PL SW,38.830557,-77.011264,"['A4', 'A4*1', 'A4/', 'A4/*2', 'W1']"
1000046,1000046,ATLANTIC ST SE + LIVINGSTON RD SE,38.830908,-77.003086,"['A2', 'A2*1', 'W1']"
1000048,1000048,ATLANTIC ST SE + VALLEY AVE SE,38.831032,-77.003198,"['A2', 'A2*1', 'W1']"
1000049,1000049,BARNABY ST SE + ATLANTIC ST SE,38.831139,-76.992571,"['A2', 'A2*1', 'W1']"
1000051,1000051,ATLANTIC ST SE + 1ST ST SE,38.83124,-77.005585,"['A2', 'A2*1', 'W1']"
1000052,1000052,BARNABY ST SE + ATLANTIC ST SE,38.831185,-76.992311,"['A2', 'A2*1', 'W1']"
1000053,1000053,CONDON TER SE + 4TH ST SE,38.83142,-77.000343,"['A2', 'A2*1']"
1000054,1000054,CONDON TER SE + 4TH ST SE,38.83139,-77.000188,"['A2', 'A2*1']"
1000055,1000055,MISSISSIPPI AVE SE + ATLANTIC ST SE,38.831772,-77.007274,"['A2', 'A2*1', 'A2*S1']"
1000056,1000056,MISSISSIPPI AVE SE + ATLANTIC ST SE,38.831764,-77.007418,"['A2', 'A2*1', 'A2/*S']"
1000057,1000057,8TH ST SE + YUMA ST SE,38.831838,-76.994567,"['A2', 'A2*1']"
1000058,1000058,CONDON TER SE + YUMA ST SE,38.832026,-76.999426,"['A2', 'A2*1']"
1000059,1000059,S CAPITOL ST SW + ATLANTIC ST SW,38.832094,-77.007978,"['A4', 'A4*1', 'A4*3', 'A4*4', 'A8', 'A8*1']"
1000060,1000060,8TH ST SE + YUMA ST SE,38.832175,-76.994712,"['A2', 'A2*1']"
1000061,1000061,BARNABY ST SE + 9TH ST SE,38.832204,-76.991003,"['A2', 'A2*1', 'W1']"
1000062,1000062,S CAPITOL ST SW + #3921,38.832236,-77.008276,['A8']
1000063,1000063,CONDON TER SE + YUMA ST SE,38.832302,-76.9988,"['A2', 'A2*1']"
1000064,1000064,SOUTHERN AVE SE + WHEELER RD SE,38.832411,-76.987068,"['A2', 'A2*1', 'D12', 'D13', 'D14', 'P12']"
1000065,1000065,BARNABY ST SE + 9TH ST SE,38.8325,-76.990824,"['A2', 'A2*1', 'W1']"
1000066,1000066,WHEELER RD SE + BELLEVUE ST SE,38.832575,-76.988253,"['A2', 'A2*1', 'A6', 'A7']"
1000067,1000067,MARTIN LUTHER KING JR AVE SW + XENIA ST SW,38.832643,-77.00903,"['A4', 'A4*1', 'A4/', 'A4/*2']"
1000068,1000068,8TH ST SE + XENIA ST SE,38.832864,-76.994568,"['A2', 'A2*1']"
1000069,1000069,MISSISSIPPI AVE SE + 1ST ST SE,38.832842,-77.006086,"['A2', 'A2*1', 'A2*S1']"
1000070,1000070,WHEELER RD SE + BARNABY TER SE,38.83314,-76.98884,"['A2', 'A2*1', 'A6', 'A6*1', 'A7']"
1000071,1000071,8TH ST SE + XENIA ST SE,38.833211,-76.994709,"['A2', 'A2*1']"
1000072,1000072,WHEELER RD SE + BARNABY TER SE,38.833124,-76.989097,"['A2', 'A2*1', 'A6', 'A7']"
1000073,1000073,MISSISSIPPI AVE SE + 1ST ST SE,38.833255,-77.005688,"['A2', 'A2*1', 'A2/*S']"
1000074,1000074,CONDON TER SE + #600,38.83361,-76.99674,"['A2', 'A2*1']"
1000075,1000075,CONDON TER SE + #600,38.833675,-76.996921,"['A2', 'A2*1']"
1000076,1000076,S CAPITOL ST SE + XENIA ST SW,38.834018,-77.008197,"['A4', 'A4*1', 'A4*3', 'A4*4', 'A8', 'A8*1']"
1000077,1000077,13TH ST SE + SOUTHERN AVE SE,38.834305,-76.985486,"['A2', 'W2', 'W2*1', 'W2*4', 'W3', 'W3*1']"
1000078,1000078,8TH ST SE + CONDON TER SE,38.834319,-76.995245,"['A2', 'A2*1']"
1000079,1000079,CONDON TER SE + 8TH ST SE,38.834226,-76.996009,"['A2', 'A2*1']"
1000080,1000080,WHEELER RD SE + WAHLER PL SE,38.834319,-76.990651,"['A6', 'A6*1', 'A7', 'W1']"
1000081,1000081,WHEELER RD SE + WAHLER PL SE,38.834392,-76.991033,"['A6', 'A7', 'W1']"
1000082,1000082,MISSISSIPPI AVE SE + WAYNE PL SE,38.83432,-77.003838,"['A2', 'A2*1', 'A2*S1']"
1000083,1000083,MISSISSIPPI AVE SE + WAYNE PL SE,38.83455,-77.003714,"['A2', 'A2*1', 'A2/*S']"
1000084,1000084,S CAPITOL ST SE + HALLEY PL SE,38.834986,-77.008101,"['A4', 'A4*1', 'A4/', 'A4/*2', 'A8']"
1000085,1000085,WHEELER RD SE + VARNEY ST SE,38.835127,-76.992131,"['A6', 'A7', 'W1']"
1000086,1000086,MISSISSIPPI AVE SE + 2ND ST SE,38.835205,-77.002506,"['A2', 'A2*1', 'A2*S1']"
1000087,1000087,WHEELER RD SE + VARNEY ST SE,38.835417,-76.992183,"['A6', 'A6*1', 'A7', 'W1']"
1000088,1000088,MISSISSIPPI AVE SE + 2ND ST SE,38.835262,-77.002633,"['A2', 'A2*1', 'A2/*S']"
1000089,1000089,13TH ST SE + #1236,38.835768,-76.986565,"['W2', 'W2*3', 'W2*4', 'W2*6', 'W3', 'W3*1']"
1000090,1000090,13TH ST SE + WAHLER PL SE,38.835902,-76.986898,"['W2', 'W2*1', 'W2*4', 'W3', 'W3*1']"
1000091,1000091,MARTIN LUTHER KING JR AVE SE + HALLEY PL SE,38.835947,-77.007479,"['A4', 'A4*1', 'A4*3', 'A4*4', 'A8', 'A8*1']"
1000092,1000092,WHEELER RD SE + BLAKNEY LN SE,38.836239,-76.992763,"['A6', 'A6*1', 'A7', 'W1']"
1000093,1000093,WHEELER RD SE + VALLEY AVE SE,38.836289,-76.992997,"['A6', 'A7', 'W1']"
1000094,1000094,MISSISSIPPI AVE SE + 4TH ST SE,38.836486,-77.000535,"['A2', 'A2*1', 'A2/*S']"
1000095,1000095,MISSISSIPPI AVE SE + 4TH ST SE,38.836521,-77.00023,"['A2', 'A2*1', 'A2*S1']"
1000096,1000096,MARTIN LUTHER KING JR AVE SE + #3726,38.836829,-77.006823,"['A4', 'A4*1', 'A4*3', 'A4*4', 'A8', 'A8*1']"
1000097,1000097,VALLEY AVE SE + WHEELER RD SE,38.836753,-76.992795,"['W2', 'W2*1', 'W2*4', 'W3', 'W3*1']"
1000098,1000098,VALLEY AVE SE + WHEELER RD SE,38.836903,-76.992792,"['W2', 'W2*3', 'W2*4', 'W2*6', 'W3', 'W3*1']"
1000099,1000099,MARTIN LUTHER KING JR AVE SE + #3726,38.836931,-77.006985,"['A4', 'A4*1', 'A4/', 'A4/*2', 'A8']"
1000100,1000100,VALLEY AVE SE + #1201,38.837409,-76.990133,"['W2', 'W2*1', 'W2*4', 'W3', 'W3*1']"
1000101,1000101,VALLEY AVE SE + #1209,38.837519,-76.990189,"['W2', 'W2*3', 'W2*4', 'W2*6', 'W3', 'W3*1']"
1000102,1000102,VALLEY AVE SE + 13TH ST SE,38.837752,-76.988729,"['W2', 'W2*1', 'W2*4', 'W3', 'W3*1']"
1000103,1000103,VALLEY AVE SE + 13TH ST SE,38.837832,-76.988896,"['W2', 'W2*3', 'W2*4', 'W2*6', 'W3', 'W3*1']"
1000104,1000104,6TH ST SE + MISSISSIPPI AVE SE,38.837795,-76.998522,"['A2', 'A2*1', 'A2/*S', 'W1']"
1000105,1000105,MARTIN LUTHER KING JR AVE SE + UPSAL ST SE,38.837917,-77.006225,"['A4', 'A4*1', 'A4/', 'A4/*2', 'A8']"
1000106,1000106,6TH ST SE + MISSISSIPPI AVE SE,38.837902,-76.998384,"['A2', 'A2*1', 'A2*S1', 'W1']"
1000107,1000107,MARTIN LUTHER KING JR AVE SE + UPSAL ST SE,38.838343,-77.005669,"['A4', 'A4*1', 'A4*3', 'A4*4', 'A8', 'A8*1']"
1000108,1000108,WHEELER RD SE + MISSISSIPPI AVE SE,38.838405,-76.993635,"['A6', 'A7', 'W1', 'W2', 'W2*1', 'W2*4', 'W3', 'W3*1']"
1000109,1000109,WHEELER RD SE + MISSISSIPPI AVE SE,38.838653,-76.993465,"['A6', 'A6*1', 'A7', 'W2', 'W2*3', 'W2*4', 'W2*6', 'W3', 'W3*1']"
1000110,1000110,MISSISSIPPI AVE SE + 10TH PL SE,38.839093,-76.991636,"['W2', 'W2*3', 'W2*4', 'W2*6', 'W3', 'W3*1']"
1000111,1000111,6TH ST SE + #3633,38.83916,-76.998526,"['A2', 'A2*1', 'A2/*S', 'W1']"
1000112,1000112,MISSISSIPPI AVE SE + 10TH PL SE,38.839256,-76.991407,"['W2', 'W2*1', 'W2*4', 'W3', 'W3*1']"
1000113,1000113,MARTIN LUTHER KING JR AVE SE + STERLING ST SE,38.839585,-77.004965,"['A4', 'A4*1', 'A4/', 'A4/*2', 'A8']"
1000114,1000114,MISSISSIPPI AVE SE + #1200,38.839638,-76.989386,"['W2', 'W2*3', 'W2*4', 'W2*6', 'W3', 'W3*1']"
1000115,1000115,MISSISSIPPI AVE SE + #1200,38.83974,-76.989457,"['W2', 'W2*1', 'W2*4', 'W3', 'W3*1']"
1000116,1000116,6TH ST SE + #3500,38.83988,-76.998387,"['A2', 'A2*1', 'A2*S1', 'W1']"
1000117,1000117,MARTIN LUTHER KING JR AVE SE + HORNER PL SE,38.839914,-77.004481,"['A4', 'A4*1', 'A4*3', 'A4*4', 'A8', 'A8*1']"
1000118,1000118,WHEELER RD + UPSAL ST,38.840198,-76.993613,"['A6', 'A6*1', 'A7']"
1000119,1000119,WHEELER RD SE + CONGRESS ST SE,38.840322,-76.993718,"['A6', 'A7']"
1000120,1000120,13TH ST SE + TRENTON PL SE,38.84084,-76.988439,"['W2', 'W2*3', 'W2*4', 'W2*6', 'W3', 'W3*1']"
1000121,1000121,13TH ST SE + TRENTON PL SE,38.840975,-76.988579,"['W2', 'W2*1', 'W2*4', 'W3', 'W3*1']"
1000122,1000122,CONGRESS ST SE + 11TH PL SE,38.841311,-76.991016,"['W2', 'W2*1', 'W2*4', 'W3', 'W3*1']"
1000123,1000123,SOUTHERN AVE + VALLEY TER SE,38.841386,-76.97558,"['30S', '32', '32*1', 'A32', 'W1']"
1000124,1000124,MARTIN LUTHER KING JR AVE SE + HIGHVIEW PL SE,38.841473,-77.003539,"['A4', 'A4*1', 'A4/', 'A4/*2', 'A8']"
1000125,1000125,11TH PL SE + CONGRESS ST SE,38.841505,-76.991238,"['W2', 'W2*3', 'W2*4', 'W2*6', 'W3', 'W3*1']"
1000126,1000126,6TH ST SE + SAVANNAH ST SE,38.841588,-76.99853,"['A2', 'A2*1', 'A2/*S', 'W1']"
1000127,1000127,6TH ST SE + SAVANNAH ST SE,38.841746,-76.99839,"['A2', 'A2*1', 'A2*S1', 'W1']"
1000128,1000128,MARTIN LUTHER KING JR AVE SE + #3353,38.841785,-77.003063,"['A4', 'A4*1', 'A4*3', 'A4*4', 'A8', 'A8*1']"
1000129,1000129,CONGRESS ST SE + 13TH ST SE,38.84187,-76.988255,"['W2', 'W2*3', 'W2*4', 'W2*6', 'W3', 'W3*1']"
1000130,1000130,SAVANNAH ST SE + 4TH ST SE,38.841938,-77.000383,"['A2', 'A2*1', 'A2*S1', 'W1']"
1000131,1000131,CONGRESS ST SE + 13TH ST SE,38.841957,-76.988354,"['W2', 'W2*1', 'W2*4', 'W3', 'W3*1']"
1000132,1000132,WHEELER RD SE + WHEELER HILL DR SE,38.842078,-76.994024,"['A6', 'A7']"
1000133,1000133,4TH ST SE + SAVANNAH ST SE,38.842242,-77.000659,"['A2', 'A2*1', 'A2/*S', 'W1']"
1000134,1000134,CONGRESS ST SE + #1326,38.842382,-76.986712,"['W2', 'W2*1', 'W2*4', 'W3', 'W3*1']"
1000135,1000135,WHEELER RD SE + SAVANNAH ST SE,38.842585,-76.993941,"['A6', 'A6*1', 'A7']"
1000136,1000136,11TH PL SE + SAVANNAH ST SE,38.842619,-76.991315,"['W2', 'W2*1', 'W2*4', 'W3', 'W3*1']"
1000137,1000137,4TH ST SE + MARTIN LUTHER KING JR AVE SE,38.84281,-77.000502,"['A2', 'A2*1', 'A2*S1', 'W1']"
1000138,1000138,MARTIN LUTHER KING JR AVE SE + 4TH ST SE,38.842742,-77.001121,"['A4', 'A4*1', 'A4*3', 'A4*4', 'A8', 'A8*1']"
1000139,1000139,MARTIN LUTHER KING JR AVE SE + WACLARK PL SE,38.842856,-77.001348,"['A4', 'A4*1', 'A4/', 'A4/*2', 'A8']"
1000140,1000140,CONGRESS ST SE + SAVANNAH PL SE,38.842864,-76.985692,"['W2', 'W2*3', 'W2*4', 'W2*6', 'W3', 'W3*1']"
1000141,1000141,11TH PL SE + SAVANNAH ST SE,38.842861,-76.991489,"['W2', 'W2*3', 'W2*4', 'W2*6', 'W3', 'W3*1']"
1000142,1000142,CONGRESS ST SE + SAVANNAH PL SE,38.843129,-76.98566,"['W2', 'W2*1', 'W2*4', 'W3', 'W3*1']"
1000143,1000143,ALABAMA AVE SE + RANDLE PL SE,38.843257,-76.997491,"['A6', 'A6*1', 'A7', 'W1', 'W4', 'W4/']"
1000144,1000144,RANDLE PL SE + ALABAMA AVE SE,38.843344,-76.997782,"['A6', 'A7', 'W4', 'W4*1']"
1000145,1000145,ALABAMA AVE SE + 7TH ST SE,38.84333,-76.996045,"['A6', 'A7', 'W1', 'W4', 'W4*1']"
1000146,1000146,WHEELER RD SE + ALABAMA AVE SE,38.843333,-76.994252,"['A6', 'A7']"
1000147,1000147,ALABAMA AVE SE + 7TH ST SE,38.843527,-76.995781,"['A6', 'A6*1', 'A7', 'W1', 'W4', 'W4/']"
1000148,1000148,MARTIN LUTHER KING JR AVE SE + 5TH ST SE,38.843522,-76.999063,"['A2', 'A2*1', 'A2*S1', 'A4', 'A4*1', 'A4*3', 'A4*4', 'A6', 'A6*1', 'A7', 'A8', 'A8*1', 'W4', 'W4/']"
1000149,1000149,MARTIN LUTHER KING JR AVE SE + 5TH ST SE,38.843516,-76.999471,"['A2', 'A2*1', 'A2/*S', 'A4', 'A4*1', 'A4/', 'A4/*2', 'A8']"
1000150,1000150,ALABAMA AVE SE + 9TH ST SE,38.84372,-76.993657,"['W1', 'W4', 'W4*1']"
1000151,1000151,ALABAMA AVE SE + 9TH ST SE,38.843821,-76.993909,"['W1', 'W4', 'W4/']"
1000152,1000152,11TH PL SE + ALABAMA AVE SE,38.843989,-76.991548,"['W2', 'W2*1', 'W2*4', 'W3', 'W3*1']"
1000153,1000153,CONGRESS ST SE + SAVANNAH ST SE,38.843889,-76.985338,"['W2', 'W2*1', 'W2*4', 'W3', 'W3*1']"
1000154,1000154,CONGRESS ST SE + SAVANNAH ST SE,38.844,-76.985174,"['W2', 'W2*3', 'W2*4', 'W2*6', 'W3', 'W3*1']"
1000155,1000155,ALABAMA AVE SE + 11TH PL SE,38.844014,-76.991961,"['W1', 'W4', 'W4*1']"
1000157,1000157,SOUTHERN AVE SE + 22ND ST SE,38.844508,-76.971567,"['30S', '32', '32*1', 'A32', 'W2', 'W2*1', 'W2*4', 'W3', 'W3*1']"
1000158,1000158,22ND ST SE + SOUTHERN AVE SE,38.844713,-76.972352,"['30S', '32']"
1000159,1000159,S CAPITOL ST SW + MALCOLM X AVE SE,38.84478,-77.008628,['W5']
1000160,1000160,TRENTON PL SE + STANTON RD SE,38.844726,-76.978439,"['W1', 'W2', 'W2*3', 'W2*4', 'W2*6', 'W3', 'W3*1']"
1000161,1000161,MARTIN LUTHER KING JR AVE SE + MALCOLM X AVE SE,38.844847,-76.997452,"['A2', 'A2*1', 'A2*S1', 'A4', 'A4*1', 'A4*3', 'A4*4', 'A6', 'A6*1', 'A7', 'A8', 'A8*1']"
1000162,1000162,MALCOLM X AVE SE + 2ND ST SE,38.845019,-77.003414,['W4']
1000163,1000163,MALCOLM X AVE SE + S CAPITOL ST SE,38.845013,-77.00704,['W4']
1000164,1000164,MALCOLM X AVE SE + OAKWOOD ST SE,38.845022,-77.000065,['W4']
1000165,1000165,TRENTON PL SE + 19TH ST SE,38.84503,-76.976781,"['W1', 'W2', 'W2*3', 'W2*4', 'W2*6', 'W3', 'W3*1']"
1000166,1000166,MALCOLM X AVE SE + MARTIN LUTHER KING JR AVE SE,38.845022,-76.997701,"['W4', 'W4*1']"
1000167,1000167,MALCOLM X AVE SE + NEWCOMB ST SE,38.845175,-76.997925,"['W2', 'W2*3', 'W2*4', 'W2*6', 'W3', 'W3*1', 'W4', 'W4/']"
1000168,1000168,MALCOLM X AVE SE + OAKWOOD ST SE,38.845179,-76.999623,"['W2', 'W2*3', 'W2*4', 'W2*6', 'W3', 'W3*1', 'W4']"
1000169,1000169,MALCOLM X AVE SE + 2ND ST SE,38.845177,-77.0031,['W4']
1000171,1000171,MARTIN LUTHER KING JR AVE SE + MALCOLM X AVE SE,38.845276,-76.997396,"['A2', 'A2*1', 'A2/*S', 'A4', 'A4*1', 'A4/', 'A4/*2', 'A6', 'A7', 'A8']"
1000172,1000172,S CAPITOL ST SE + MALCOLM X AVE SE,38.845517,-77.00805,"['W4', 'W5']"
1000173,1000173,MELLON ST SE + MARTIN LUTHER KING JR AVE SE,38.845676,-76.997519,"['W2', 'W2*1', 'W2*3', 'W2*4', 'W2*6', 'W3', 'W3*1']"
1000175,1000175,SAVANNAH ST SE + STANTON RD SE,38.845855,-76.979546,"['W1', 'W2', 'W2*1', 'W2*4', 'W3', 'W3*1']"
1000176,1000176,STANTON RD SE + SAVANNAH ST SE,38.845914,-76.979894,"['W1', 'W2', 'W2*3', 'W2*4', 'W2*6', 'W3', 'W3*1']"
1000177,1000177,ORANGE ST SE + OAKWOOD ST SE,38.845929,-77.001344,"['W2', 'W2*3', 'W2*4', 'W2*6', 'W3', 'W3*1']"
1000178,1000178,ALABAMA AVE SE + 15TH ST SE,38.845953,-76.983868,"['92', '92*1', 'V7', 'W1', 'W4', 'W4/']"
1000179,1000179,SOUTHERN AVE + 25TH ST SE,38.846084,-76.969546,"['W2', 'W2*1', 'W2*4', 'W3', 'W3*1']"
1000180,1000180,SAVANNAH ST SE + 18TH ST SE,38.846212,-76.978336,"['W1', 'W2', 'W2*1', 'W2*4', 'W3', 'W3*1']"
1000181,1000181,ALABAMA AVE SE + 15TH PL SE,38.84608,-76.982922,"['92', '92/', 'D51', 'V7', 'W1', 'W2', 'W2*3', 'W2*4', 'W2*6', 'W3', 'W3*1', 'W4', 'W4*1']"
1000182,1000182,19TH ST SE + SAVANNAH ST SE,38.846322,-76.976905,"['W1', 'W2', 'W2*1', 'W2*4', 'W3', 'W3*1']"
1000183,1000183,ALABAMA AVE SE + 15TH PL SE,38.846297,-76.982682,"['92', '92*1', 'V7', 'W1', 'W2', 'W2*1', 'W2*4', 'W3', 'W3*1', 'W4', 'W4/']"
1000184,1000184,MARTIN LUTHER KING JR AVE SE + LEBAUM ST SE,38.84637,-76.99631,"['A2', 'A2*1', 'A2*S1', 'A4', 'A4*1', 'A4*3', 'A4*4', 'A6', 'A6*1', 'A7', 'A8', 'A8*1', 'W2', 'W2*1', 'W2*3', 'W2*4', 'W3', 'W3*1']"
1000186,1000186,MELLON ST SE + 5TH ST SE,38.846548,-76.998958,"['W2', 'W2*3', 'W2*4', 'W2*6', 'W3', 'W3*1']"
1000187,1000187,ORANGE ST SE + 4TH ST SE,38.846742,-77.003908,"['W2', 'W2*3', 'W2*4', 'W2*6', 'W3', 'W3*1']"
1000188,1000188,ALABAMA AVE SE + STANTON RD SE,38.84672,-76.98069,"['92', '92/', 'D51', 'V7', 'W1', 'W2', 'W2*3', 'W2*4', 'W2*6', 'W3', 'W3*1', 'W4', 'W4*1']"
1000189,1000189,ALABAMA AVE SE + STANTON RD SE,38.84684,-76.980789,"['92', '92*1', 'V7', 'W1', 'W2', 'W2*1', 'W2*4', 'W3', 'W3*1', 'W4', 'W4/']"
1000190,1000190,ORANGE ST SE + 2ND ST SE,38.84695,-77.005304,"['W2', 'W2*3', 'W2*4', 'W2*6', 'W3', 'W3*1']"
1000191,1000191,SOUTHERN AVE + #2524,38.846874,-76.968532,"['W2', 'W2*1', 'W2*4', 'W3', 'W3*1']"
1000192,1000192,MARTIN LUTHER KING JR AVE SE + MILWAUKEE PL SE,38.846995,-76.996184,"['A2', 'A2*1', 'A2/*S', 'A4', 'A4*1', 'A4/', 'A4/*2', 'A6', 'A7', 'A8', 'W2', 'W2*3', 'W2*4', 'W2*6', 'W3', 'W3*1']"
1000193,1000193,22ND ST SE + SAVANNAH ST SE,38.847203,-76.972758,"['30S', '32']"
1000194,1000194,STANTON RD SE + ALABAMA AVE SE,38.847245,-76.980355,['W6']
1000195,1000195,MELLON ST SE + 5TH ST SE,38.847203,-77.00005,"['W2', 'W2*3', 'W2*4', 'W2*6', 'W3', 'W3*1']"
1000197,1000197,STANTON RD SE + ALABAMA AVE SE,38.847226,-76.9805,['W8']
1000198,1000198,2ND ST SE + OAKWOOD ST SE,38.847719,-77.005487,"['W2', 'W2*3', 'W2*4', 'W2*6', 'W3', 'W3*1']"
1000199,1000199,SAVANNAH ST SE + 23RD ST SE,38.847929,-76.971164,"['30S', '32']"
1000200,1000200,MELLON ST SE + #431,38.847887,-77.001173,"['W2', 'W2*3', 'W2*4', 'W2*6', 'W3', 'W3*1']"
1000201,1000201,NEWCOMB ST SE + 4TH ST SE,38.848045,-77.00304,"['W2', 'W2*3', 'W2*4', 'W2*6', 'W3', 'W3*1']"
1000202,1000202,SAVANNAH ST SE + 24TH ST SE,38.848089,-76.970213,"['30S', '32', '32*1', 'A32']"
1000203,1000203,ALABAMA AVE SE + 18TH PL SE,38.848244,-76.978156,"['92', '92/', 'D51', 'V7', 'W4', 'W4*1', 'W8']"
1000204,1000204,SOUTHERN AVE + #2613,38.848027,-76.967075,"['W2', 'W2*1', 'W2*4', 'W3', 'W3*1']"
1000205,1000205,STANTON RD SE + TUBMAN RD,38.848579,-76.980976,['W8']
1000206,1000206,STANTON RD SE + ANITA J TURNER ELEMENTARY SCHOOL,38.848284,-76.980723,['W6']
1000207,1000207,MARTIN LUTHER KING JR AVE SE + MILWAUKEE PL SE,38.848382,-76.995893,"['A2', 'A2*1', 'A2*S1', 'A4', 'A4*1', 'A4*3', 'A4*4', 'A6', 'A6*1', 'A7', 'A8', 'A8*1', 'W2', 'W2*1', 'W2*3', 'W2*4', 'W3', 'W3*1']"
1000208,1000208,ALABAMA AVE SE + 18TH PL SE,38.848631,-76.978065,"['92', '92*1', 'V7', 'W4', 'W4/', 'W6']"
1000209,1000209,NEWCOMB ST SE + NEWCOMB ST SE,38.848945,-77.004689,"['W2', 'W2*3', 'W2*4', 'W2*6', 'W3', 'W3*1']"
1000210,1000210,MARTIN LUTHER KING JR AVE SE + ST ELIZABETHS GATE 3,38.849388,-76.995885,"['A2', 'A2*1', 'A2*S1', 'A4', 'A4*1', 'A4*3', 'A4*4', 'A6', 'A6*1', 'A7', 'A8', 'A8*1', 'W2', 'W2*1', 'W2*3', 'W2*4', 'W3', 'W3*1']"
1000211,1000211,MARTIN LUTHER KING JR AVE SE + ST ELIZABETHS GATE 3,38.849634,-76.996043,"['A2', 'A2*1', 'A2/*S', 'A4', 'A4*1', 'A4/', 'A4/*2', 'A6', 'A7', 'A8', 'W2', 'W2*3', 'W2*4', 'W2*6', 'W3', 'W3*1']"
1000213,1000213,SOUTHERN AVE SE + #2912,38.849668,-76.964984,"['W2', 'W2*1', 'W2*4', 'W3', 'W3*1']"
1000214,1000214,BRUCE ST SE + ROBINSON ST SE,38.84995,-76.984484,"['W6', 'W8']"
1000216,1000216,STANTON RD SE + BRUCE PL SE,38.850663,-76.980936,['W6']
1000217,1000217,ALABAMA AVE SE + STANTON TER SE,38.850667,-76.975583,"['92', '92*1', 'V7', 'W4', 'W4/', 'W6']"
1000218,1000218,BRUCE PL SE + STANTON RD SE,38.850718,-76.98119,"['W6', 'W8']"
1000219,1000219,ALABAMA AVE SE + 22ND ST SE,38.85083,-76.974525,"['92', '92/', 'D51', 'V7', 'W4', 'W4*1', 'W8']"
1000220,1000220,BRUCE ST SE + 15TH PL SE,38.850784,-76.982475,"['W6', 'W8']"
1000221,1000221,23RD ST SE + ALABAMA AVE SE,38.850797,-76.9735,"['30S', '32', '32*1', 'A32']"
1000223,1000223,SOUTHERN AVE SE + 30TH ST SE,38.850966,-76.963293,"['30N', '36', 'W2', 'W2*1', 'W2*4', 'W3', 'W3*1']"
1000224,1000224,ALABAMA AVE SE + 22ND ST SE,38.851127,-76.974052,"['92', '92*1', 'V7', 'W4', 'W4/', 'W6']"
1000225,1000225,ALABAMA AVE SE + 24TH ST SE,38.85122,-76.972275,"['30S', '32', '92', '92/', 'D51', 'V7', 'W4', 'W4*1', 'W8']"
1000226,1000226,12TH PL SE + JASPER RD SE,38.851255,-76.985277,"['W6', 'W8']"
1000227,1000227,30TH ST SE + SOUTHERN AVE SE,38.851422,-76.964319,"['30N', '36', 'W2', 'W2*3', 'W2*4', 'W2*6', 'W3', 'W3*1']"
1000228,1000228,ALABAMA AVE SE + 24TH ST SE,38.851467,-76.971924,"['30S', '32', '32*1', '92', '92*1', 'A32', 'V7', 'W4', 'W4/', 'W6']"
1000229,1000229,JASPER PL SE + #1350,38.851489,-76.982201,"['W6', 'W8']"
1000232,1000232,BRUCE PL SE + #3100,38.851659,-76.983539,"['W6', 'W8']"
1000233,1000233,12TH PL SE + BRUCE PL SE,38.851832,-76.984725,"['W6', 'W8']"
1000234,1000234,STANTON RD SE + JASPER PL SE,38.851763,-76.98127,['W6']
1000235,1000235,NAYLOR RD SE + SOUTHERN AVE SE,38.852255,-76.96322,"['30N', '36', 'W2', 'W2*1', 'W2*4', 'W3', 'W3*1']"
1000236,1000236,30TH ST SE + BUENA VISTA TER SE,38.852361,-76.965516,"['30N', '36', 'W2', 'W2*3', 'W2*4', 'W2*6', 'W3', 'W3*1']"
1000237,1000237,ALABAMA AVE SE + IRVING PL SE,38.852337,-76.970455,"['30S', '32', '32*1', '92', '92*1', 'A32', 'V7', 'W4', 'W4/', 'W6']"
1000238,1000238,ALABAMA AVE SE + JASPER ST SE,38.852526,-76.970069,"['30S', '32', '92', '92/', 'D51', 'V7', 'W4', 'W4*1', 'W8']"
1000239,1000239,STANTON RD SE + SUITLAND PKY SE,38.852477,-76.982536,['W8']
1000240,1000240,MARTIN LUTHER KING JR AVE SE + ST ES GATE 2,38.852938,-76.995795,"['A2', 'A2*1', 'A2*S1', 'A4', 'A4*1', 'A4*3', 'A4*4', 'A6', 'A6*1', 'A7', 'A8', 'A8*1', 'W2', 'W2*1', 'W2*3', 'W2*4', 'W3', 'W3*1']"
1000241,1000241,IRVING ST SE + 24TH ST SE,38.852972,-76.972368,"['W2', 'W2*1', 'W2*4', 'W3', 'W3*1']"
1000242,1000242,IRVING ST SE + 23RD ST SE,38.853079,-76.973023,"['W2', 'W2*3', 'W2*4', 'W2*6', 'W3', 'W3*1']"
1000243,1000243,IRVING ST SE + 24TH PL SE,38.853077,-76.971064,"['W2', 'W2*3', 'W2*4', 'W2*6', 'W3', 'W3*1']"
1000244,1000244,23RD ST SE + IRVING ST SE,38.853195,-76.973281,"['W2', 'W2*1', 'W2*4', 'W3', 'W3*1']"
1000245,1000245,MARTIN LUTHER KING JR AVE SE + ST ELIZABETHS GATE 2,38.853211,-76.996004,"['A2', 'A2*1', 'A2/*S', 'A4', 'A4*1', 'A4/', 'A4/*2', 'A6', 'A7', 'A8', 'W2', 'W2*3', 'W2*4', 'W2*6', 'W3', 'W3*1']"
1000246,1000246,NAYLOR RD SE + #3041,38.853377,-76.964383,"['30N', '36', 'W2', 'W2*1', 'W2*4', 'W3', 'W3*1']"
1000247,1000247,STANTON RD SE + SUITLAND PKY SE,38.853769,-76.983756,['W6']
1000248,1000248,HARTFORD ST SE + 23RD ST SE,38.854036,-76.973332,"['W2', 'W2*1', 'W2*4', 'W3', 'W3*1']"
1000249,1000249,ALABAMA AVE SE + HARTFORD ST SE,38.854036,-76.970072,"['30S', '32', '32*1', '92', '92*1', 'A32', 'V7', 'W2', 'W2*3', 'W2*4', 'W2*6', 'W3', 'W3*1', 'W4', 'W4/', 'W6']"
1000250,1000250,30TH ST SE + NAYLOR RD SE,38.854458,-76.965628,"['30N', '36', 'W2', 'W2*3', 'W2*4', 'W2*6', 'W3', 'W3*1']"
1000253,1000253,MARTIN LUTHER KING JR AVE SE + ST ELIZABETHS GATE 1,38.854994,-76.995976,"['A2', 'A2*1', 'A2*S1', 'A4', 'A4*1', 'A4*3', 'A4*4', 'A6', 'A6*1', 'A7', 'A8', 'A8*1', 'W2', 'W2*1', 'W2*3', 'W2*4', 'W3', 'W3*1']"
1000254,1000254,POMEROY RD SE + #2500,38.85516,-76.98989,['W8']
1000255,1000255,MARTIN LUTHER KING JR AVE SE + ST ELIZABETHS GATE 1,38.855239,-76.996152,"['A2', 'A2*1', 'A2/*S', 'A4', 'A4*1', 'A4/', 'A4/*2', 'A6', 'A7', 'A8', 'W2', 'W2*3', 'W2*4', 'W2*6', 'W3', 'W3*1']"
1000256,1000256,LANGSTON PL SE + RAYNOLDS PL SE,38.855409,-76.973278,"['W2', 'W2*3', 'W2*4', 'W2*6', 'W3', 'W3*1']"
1000258,1000258,LANGSTON PL SE + RAYNOLDS PL SE,38.855491,-76.973376,"['W2', 'W2*1', 'W2*4', 'W3', 'W3*1']"
1000259,1000259,POMEROY RD SE + SHERIDAN RD SE,38.855571,-76.992576,['W8']
1000260,1000260,POMEROY RD SE + SHERIDAN RD SE,38.855674,-76.992606,['W6']
1000262,1000262,SOUTHERN AVE SE + FAIRHILL DR,38.855739,-76.957194,"['F14', 'F14*1']"
1000263,1000263,STANTON RD SE + POMEROY RD SE,38.855796,-76.986972,['W8']
1000264,1000264,ALABAMA AVE SE + AINGER PL SE,38.855969,-76.970062,"['30S', '32', '32*1', '92', '92*1', 'A32', 'V7', 'W2', 'W2*3', 'W2*4', 'W2*6', 'W3', 'W3*1', 'W4', 'W4/', 'W6']"
1000266,1000266,SHERIDAN RD SE + #2646,38.856386,-76.993444,['W8']
1000267,1000267,BRUCE PL SE + FORT PL SE,38.856457,-76.975409,"['W2', 'W2*3', 'W2*4', 'W2*6', 'W3', 'W3*1']"
1000268,1000268,BRUCE PL SE + RAYNOLDS PL SE,38.856739,-76.974908,"['W2', 'W2*1', 'W2*4', 'W3', 'W3*1']"
1000270,1000270,NAYLOR RD SE + ERIE ST SE,38.856935,-76.967176,"['W2', 'W2*3', 'W2*4', 'W2*6', 'W3', 'W3*1']"
1000271,1000271,MARTIN LUTHER KING JR AVE SE + POMEROY RD SE,38.856857,-76.995994,"['A2', 'A2*1', 'A2/*S', 'A4', 'A4*1', 'A4/', 'A4/*2', 'A6', 'A7', 'A8', 'W2', 'W2*3', 'W2*4', 'W2*6', 'W3', 'W3*1']"
1000273,1000273,MORRIS RD SE + 16TH ST SE,38.856929,-76.98244,"['W2', 'W2*1', 'W2*4', 'W3', 'W3*1']"
1000274,1000274,AINGER PL SE + LANGSTON PL SE,38.856957,-76.971927,"['W2', 'W2*1', 'W2*4', 'W3', 'W3*1']"
1000275,1000275,MORRIS RD SE + 16TH ST SE,38.857026,-76.982517,"['W2', 'W2*3', 'W2*4', 'W2*6', 'W3', 'W3*1']"
1000276,1000276,SOUTHERN AVE SE + 34TH ST SE,38.857039,-76.9555,"['F14', 'F14*1']"
1000277,1000277,AINGER PL SE + LANGSTON PL SE,38.857078,-76.971905,"['W2', 'W2*3', 'W2*4', 'W2*6', 'W3', 'W3*1']"
1000280,1000280,NAYLOR RD SE + 28TH ST SE,38.8571,-76.967455,"['W2', 'W2*1', 'W2*4', 'W3', 'W3*1']"
1000281,1000281,FORT PL SE + #1901,38.857248,-76.97681,"['W2', 'W2*3', 'W2*4', 'W2*6', 'W3', 'W3*1']"
1000282,1000282,MORRIS RD SE + 17TH ST SE,38.857182,-76.980988,"['W2', 'W2*1', 'W2*4', 'W3', 'W3*1']"
1000283,1000283,FORT PL SE + #1901,38.857146,-76.976891,"['W2', 'W2*1', 'W2*4', 'W3', 'W3*1']"
1000284,1000284,MORRIS RD SE + 17TH ST SE,38.857258,-76.981166,"['W2', 'W2*3', 'W2*4', 'W2*6', 'W3', 'W3*1']"
1000285,1000285,MARTIN LUTHER KING JR AVE SE + #2652,38.857337,-76.99571,"['A2', 'A2*1', 'A2*S1', 'A4', 'A4*1', 'A4*3', 'A4*4', 'A6', 'A6*1', 'A7', 'A8', 'A8*1', 'W2', 'W2*1', 'W2*3', 'W2*4', 'W3', 'W3*1']"
1000286,1000286,ERIE ST SE + 33RD ST SE,38.857236,-76.960441,"['30N', '36']"
1000287,1000287,ERIE ST SE + 31ST ST SE,38.85723,-76.962791,"['30N', '36']"
1000288,1000288,ERIE ST SE + 30TH ST SE,38.857295,-76.964331,"['30N', '36']"
1000289,1000289,ERIE ST SE + 18TH ST SE,38.857258,-76.979194,"['W2', 'W2*1', 'W2*4', 'W3', 'W3*1']"
1000290,1000290,ERIE ST SE + 18TH ST SE,38.857365,-76.978816,"['W2', 'W2*3', 'W2*4', 'W2*6', 'W3', 'W3*1']"
1000291,1000291,MORRIS RD SE + ELVANS RD SE,38.857225,-76.983483,"['W2', 'W2*3', 'W2*4', 'W2*6', 'W3', 'W3*1']"
1000292,1000292,ALABAMA AVE SE + 25TH ST SE,38.857309,-76.969678,"['30S', '32', '32*1', '92', '92*1', 'A32', 'V7', 'W4', 'W4/', 'W6']"
1000293,1000293,ERIE ST SE + 31ST ST SE,38.857346,-76.962318,"['30N', '36']"
1000296,1000296,33RD ST SE + ERIE ST SE,38.857506,-76.960251,"['30N', '36']"
1000297,1000297,AINGER PL SE + BRUCE PL SE,38.8578,-76.973219,"['W2', 'W2*1', 'W2*4', 'W3', 'W3*1']"
1000298,1000298,MORRIS RD SE + POMEROY RD SE,38.857894,-76.984741,"['A33', 'W2', 'W2*1', 'W2*4', 'W3', 'W3*1']"
1000299,1000299,S CAPITOL ST SW + #2750,38.858053,-77.004956,"['W4', 'W5']"
1000300,1000300,33RD ST SE + DENVER ST SE,38.858229,-76.960127,"['30N', '36']"
1000301,1000301,S CAPITOL ST SE + #2750,38.858225,-77.004644,"['W4', 'W5']"
1000304,1000304,MORRIS RD SE + HUNTER PL SE,38.858502,-76.985337,"['W2', 'W2*3', 'W2*4', 'W2*6', 'W3', 'W3*1']"
1000306,1000306,SOUTHERN AVE SE + 36TH PL SE,38.858502,-76.953623,"['F14', 'F14*1']"
1000307,1000307,ALABAMA AVE SE + NAYLOR RD SE,38.858615,-76.968358,"['D51', 'V7', 'W4', 'W4*1']"
1000308,1000308,33RD ST SE + DENVER ST SE,38.858469,-76.960247,"['30N', '36']"
1000309,1000309,25TH ST SE + WAGNER ST SE,38.858739,-76.969917,"['W2', 'W2*1', 'W2*4', 'W3', 'W3*1']"
1000310,1000310,MORRIS RD SE + HUNTER PL SE,38.858711,-76.985901,"['A33', 'W2', 'W2*1', 'W2*4', 'W3', 'W3*1', 'W6']"
1000311,1000311,SHERIDAN RD SE + BOWEN RD SE,38.858855,-76.993291,"['A33', 'W6']"
1000312,1000312,25TH ST SE + WAGNER ST SE,38.858865,-76.970058,"['W2', 'W2*3', 'W2*4', 'W2*6', 'W3', 'W3*1']"
1000313,1000313,HUNTER PL SE + MORRIS RD SE,38.859035,-76.985069,"['W8', 'W8*1']"
1000314,1000314,NAYLOR RD SE + ALABAMA AVE SE,38.859057,-76.968288,"['30S', '32', '32*1', '92', '92*1', 'A32', 'W2', 'W2*1', 'W2*4', 'W6']"
1000315,1000315,MARTIN LUTHER KING JR AVE SE + STANTON RD SE,38.859145,-76.995212,"['A2', 'A2*1', 'A2*S1', 'A4', 'A4*1', 'A4*3', 'A4*4', 'A6', 'A6*1', 'A7', 'A8', 'A8*1', 'W2', 'W2*1', 'W2*3', 'W2*4', 'W3', 'W3*1']"
1000316,1000316,SHERIDAN RD SE + BOWEN RD SE,38.859152,-76.993465,['W8']
1000317,1000317,ALABAMA AVE SE + NAYLOR RD SE,38.8592,-76.968059,"['V7', 'W4', 'W4/']"
1000318,1000318,CAMDEN ST SE + 33RD ST SE,38.85938,-76.959687,"['30N', '36']"
1000319,1000319,MORRIS RD SE + BRYAN PL SE,38.859471,-76.986761,"['W2', 'W2*3', 'W2*4', 'W2*6', 'W3', 'W3*1', 'W8', 'W8*1']"
1000320,1000320,MARTIN LUTHER KING JR AVE SE + SUMNER RD SE,38.859491,-76.99517,"['A2', 'A2*1', 'A2/*S', 'A4', 'A4*1', 'A4/', 'A4/*2', 'A6', 'A7', 'A8', 'W2', 'W2*3', 'W2*4', 'W2*6', 'W3', 'W3*1']"
1000321,1000321,BRANCH AVE SE + CAMDEN ST SE,38.859563,-76.958991,"['30N', '36']"
1000322,1000322,NAYLOR RD SE + GOOD HOPE RD SE,38.859589,-76.968121,"['30S', '32', '92', '92/', 'W2', 'W2*3', 'W2*4', 'W2*6', 'W3', 'W3*1', 'W8', 'W8*1']"
1000323,1000323,ALABAMA AVE SE + GOOD HOPE RD SE,38.859682,-76.967142,"['D51', 'V7', 'W3', 'W3*1', 'W4', 'W4*1']"
1000324,1000324,SOUTHERN AVE SE + FOREST GLADE LN,38.859926,-76.95179,"['F14', 'F14*1']"
1000325,1000325,MORRIS RD SE + WEST ST SE,38.85998,-76.98778,"['A33', 'W2', 'W2*1', 'W2*4', 'W3', 'W3*1', 'W6']"
1000326,1000326,HUNTER PL SE + BANGOR ST SE,38.86027,-76.983749,"['W8', 'W8*1']"
1000327,1000327,BRANCH AVE SE + BANGOR ST SE,38.860388,-76.958844,"['30N', '36']"
1000328,1000328,ALABAMA AVE SE + GOOD HOPE RD SE,38.860355,-76.966056,"['V7', 'W4', 'W4/']"
1000329,1000329,25TH ST SE + SKYLAND PL SE,38.860424,-76.969935,"['W2', 'W2*3', 'W2*4', 'W2*6', 'W3', 'W3*1']"
1000330,1000330,25TH ST SE + SKYLAND PL SE,38.860411,-76.969771,"['W2', 'W2*1', 'W2*4', 'W3', 'W3*1']"
1000331,1000331,S CAPITOL ST SE + FIRTH STERLING AVE SE,38.860517,-77.003418,"['W4', 'W5']"
1000332,1000332,ALABAMA AVE SE + 30TH ST SE,38.86056,-76.964967,"['D51', 'V7', 'W3', 'W3*1', 'W4', 'W4*1']"
1000333,1000333,BRANCH AVE SE + BANGOR ST SE,38.860621,-76.958993,"['30N', '36']"
1000335,1000335,GOOD HOPE RD SE + NAYLOR RD SE,38.860808,-76.969036,"['30S', '32', '32*1', '92', '92*1', 'A32', 'W2', 'W2*1', 'W2*4', 'W3', 'W3*1', 'W6']"
1000336,1000336,ALABAMA AVE SE + 30TH ST SE,38.860869,-76.964624,"['V7', 'W4', 'W4/']"
1000338,1000338,SHERIDAN RD SE + MARTIN LUTHER KING JR AVE SE,38.861111,-76.993653,['A33']
1000340,1000340,ALABAMA AVE SE + 31ST ST SE,38.861238,-76.963208,"['D51', 'V7', 'W4', 'W4*1']"
1000342,1000342,ALABAMA AVE SE + 31ST ST SE,38.861463,-76.962968,"['V7', 'W4', 'W4/']"
1000343,1000343,GOOD HOPE RD SE + 25TH ST SE,38.861494,-76.969543,"['92', '92/', 'W8', 'W8*1']"
1000344,1000344,MORRIS RD SE + #1349,38.861511,-76.989418,"['A33', 'W2', 'W2*1', 'W2*4', 'W3', 'W3*1', 'W6']"
1000345,1000345,SUITLAND RD SE + SOUTHERN AVE SE,38.861579,-76.950479,['M6']
1000346,1000346,BRANCH AVE SE + ALABAMA AVE SE,38.861809,-76.958902,"['30N', '36']"
1000347,1000347,ALABAMA AVE SE + 32ND ST SE,38.861663,-76.96162,"['D51', 'V7', 'W4', 'W4*1']"
1000348,1000348,FIRTH STERLING AVE SE + SUMNER RD SE,38.861744,-76.999569,"['A4*3', 'A4*4', 'W4', 'W5']"
1000349,1000349,FIRTH STERLING AVE SE + SUMNER RD SE,38.861671,-76.999375,"['A4*1', 'A4/*2', 'W4', 'W5']"
1000350,1000350,ALABAMA AVE SE + 32ND ST SE,38.861818,-76.961275,"['V7', 'W4', 'W4/']"
1000351,1000351,ANACOSTIA STATION + BUS BAY E,38.861823,-76.995459,"['90', '90*2']"
1000352,1000352,16TH ST SE + GALEN ST SE,38.861843,-76.98274,['W6']
1000353,1000353,ALABAMA AVE SE + BRANCH AVE SE,38.861855,-76.959215,"['D51', 'V7', 'W4', 'W4*1']"
1000354,1000354,MARTIN LUTHER KING JR AVE SE + HOWARD RD SE,38.861978,-76.993336,"['90', 'B2', 'B2/', 'P6', 'P6/*1', 'V2', 'W2', 'W2*1', 'W2*4', 'W3', 'W3*1', 'W6']"
1000355,1000355,MARTIN LUTHER KING JR AVE SE + HOWARD RD SE,38.861982,-76.993538,"['90', '90*2', 'B2', 'B2*1', 'B2*S1', 'P6', 'P6*2', 'V2', 'V2*1', 'W2', 'W2*3', 'W2*4', 'W2*6', 'W3', 'W3*1', 'W8', 'W8*1']"
1000356,1000356,ALABAMA AVE SE + BRANCH AVE SE,38.862023,-76.958806,"['V7', 'W4', 'W4/']"
1000358,1000358,ALABAMA AVE SE + 34TH ST SE,38.86211,-76.957793,"['D51', 'S35', 'V7', 'W4', 'W4*1']"
1000359,1000359,BRANCH AVE SE + ALABAMA AVE SE,38.862085,-76.959114,"['30N', '36']"
1000360,1000360,MORRIS RD SE + MT VIEW PL SE,38.862194,-76.990097,"['A33', 'W2', 'W2*1', 'W2*4', 'W3', 'W3*1', 'W6']"
1000361,1000361,GOOD HOPE RD SE + 24TH ST SE,38.862249,-76.97074,"['92', '92/', 'W8', 'W8*1']"
1000362,1000362,HOWARD RD SE + EAST ENTRANCE TO ANACOSTIA STATION,38.862279,-76.995027,"['W2', 'W2*1', 'W2*3', 'W2*4', 'W3', 'W3*1']"
1000363,1000363,HOWARD RD SE + EAST ENTRANCE TO ANACOSTIA STATION,38.862361,-76.994833,"['W2', 'W2*3', 'W2*4', 'W2*6', 'W3', 'W3*1']"
1000364,1000364,GOOD HOPE RD SE + 24TH ST SE,38.862307,-76.971204,"['92', '92*1', 'A32', 'W6']"
1000365,1000365,ANACOSTIA STATION + BUS BAY L,38.862425,-76.996164,"['A4', 'A4*1', 'A4/', 'A4/*2', 'W5']"
1000366,1000366,ALABAMA AVE SE + 34TH ST SE,38.862437,-76.957199,"['V7', 'W4', 'W4/']"
1000367,1000367,MORRIS RD SE + MT VIEW PL SE,38.862496,-76.990268,"['W2', 'W2*3', 'W2*4', 'W2*6', 'W3', 'W3*1', 'W8', 'W8*1']"
1000369,1000369,38TH ST SE + W ST SE,38.86293,-76.952147,['M6']
1000371,1000371,SOUTHERN AVE SE + SUITLAND TER SE,38.862887,-76.947991,"['F14', 'F14*1', 'M6']"
1000372,1000372,16TH ST SE + GALEN ST SE,38.862927,-76.982744,"['W8', 'W8*1']"
1000373,1000373,MARTIN LUTHER KING JR AVE SE + TALBERT ST SE,38.862871,-76.992237,"['90', '90*2', 'B2', 'B2*1', 'B2*S1', 'P6', 'P6*2', 'V2', 'V2*1', 'W2', 'W2*3', 'W2*4', 'W2*6', 'W3', 'W3*1', 'W8', 'W8*1']"
1000374,1000374,GOOD HOPE RD SE + ALTAMONT PL SE,38.862924,-76.972593,"['92', '92*1', 'A32', 'W6']"
1000375,1000375,NAYLOR RD SE + #2619,38.862938,-76.970107,"['30S', '32', '32*1']"
1000376,1000376,GOOD HOPE RD SE + ALTAMONT PL SE,38.863071,-76.972606,"['92', '92/', 'W8', 'W8*1']"
1000377,1000377,ALABAMA AVE SE + 36TH ST SE,38.863067,-76.956536,"['V7', 'W4', 'W4/']"
1000378,1000378,MARTIN LUTHER KING JR AVE SE + MORRIS RD SE,38.863205,-76.991331,"['90', 'B2', 'B2/', 'P6', 'P6/*1', 'V2', 'W2', 'W2*1', 'W2*4', 'W3', 'W3*1', 'W6']"
1000381,1000381,W ST SE + 16TH ST SE,38.863613,-76.982913,"['B2', 'B2/', 'V2']"
1000382,1000382,MARTIN LUTHER KING JR AVE SE + CHICAGO ST SE,38.863594,-76.990876,"['90', '90*2', 'B2', 'B2*1', 'B2*S1', 'P6', 'P6*2', 'V2', 'V2*1']"
1000383,1000383,GOOD HOPE RD SE + WOODMONT PL SE,38.863773,-76.974695,"['92', '92*1', 'A32', 'W6']"
1000386,1000386,W ST SE + 14TH ST SE,38.864108,-76.985619,"['B2', 'B2/', 'V2']"
1000387,1000387,ALABAMA AVE SE + 36TH PL SE,38.864156,-76.955479,"['V7', 'W4', 'W4/']"
1000388,1000388,GOOD HOPE RD SE + MARBURY PLAZA APARTMENTS,38.864241,-76.975377,"['92', '92/', 'W8', 'W8*1']"
1000389,1000389,MARTIN LUTHER KING JR AVE SE + PLEASANT ST SE,38.864255,-76.989989,"['90', 'B2', 'B2/', 'P6', 'P6/*1', 'V2']"
1000390,1000390,PENNSYLVANIA AVE SE + 40TH ST SE,38.864303,-76.94792,"['V7', 'W4', 'W4/']"
1000392,1000392,W ST SE + 13TH ST SE,38.86454,-76.98799,"['B2', 'B2/', 'V2']"
1000394,1000394,ALABAMA AVE SE + 37TH ST SE,38.864613,-76.953862,"['D51', 'S35', 'V7', 'W4', 'W4*1']"
1000395,1000395,16TH ST SE + V ST SE,38.864702,-76.9823,"['B2', 'B2/', 'V2', 'W6']"
1000396,1000396,GOOD HOPE RD SE + 22ND ST SE,38.864779,-76.976484,"['92', '92/', 'W8', 'W8*1']"
1000397,1000397,GOOD HOPE RD SE + 22ND ST SE,38.864756,-76.976771,"['92', '92*1', 'A32', 'W6']"
1000398,1000398,MARTIN LUTHER KING JR AVE SE + W ST SE,38.865055,-76.989783,"['90', '90*2', 'A33', 'B2', 'B2*1', 'B2*S1', 'P6', 'P6*2', 'V2', 'V2*1']"
1000399,1000399,ALABAMA AVE SE + 38TH ST SE,38.865189,-76.95272,"['V7', 'W4', 'W4/']"
1000400,1000400,BRANCH AVE SE + U ST SE,38.865217,-76.959529,"['30N', '36']"
1000401,1000401,PENNSYLVANIA AVE SE + FORT DAVIS ST SE,38.865201,-76.950141,"['V7', 'W4', 'W4/']"
1000402,1000402,16TH ST SE + U ST SE,38.865186,-76.982283,"['W8', 'W8*1']"
1000407,1000407,BRANCH AVE SE + U ST SE,38.865397,-76.959734,"['30N', '36', 'S35']"
1000408,1000408,GOOD HOPE RD SE + 18TH ST SE,38.865552,-76.978719,"['92', '92*1', 'A32', 'W6']"
1000409,1000409,38TH ST SE + PENNSYLVANIA AVE SE,38.865677,-76.952142,"['D51', 'M6']"
1000410,1000410,GOOD HOPE RD SE + 18TH ST SE,38.8658,-76.979365,"['92', '92/', 'W8', 'W8*1']"
1000411,1000411,NAYLOR RD SE + PARK NAYLOR APARTMENTS,38.865856,-76.970261,"['30S', '32']"
1000412,1000412,NAYLOR RD SE + PARK NAYLOR APARTMENTS,38.86578,-76.970452,"['30S', '32', '32*1']"
1000413,1000413,ALABAMA AVE SE + PENNSYLVANIA AVE SE,38.865958,-76.950717,['M6']
1000414,1000414,16TH ST SE + GOOD HOPE RD SE,38.866,-76.981918,"['B2', 'B2/', 'V2', 'W6']"
1000416,1000416,GOOD HOPE RD SE + 16TH ST SE,38.866177,-76.982123,"['92', '92*1']"
1000417,1000417,GOOD HOPE RD SE + 15TH ST SE,38.866409,-76.983418,"['92', '92*1']"
1000420,1000420,GOOD HOPE RD SE + 14TH ST SE,38.866754,-76.985315,"['92', '92*1']"
1000422,1000422,ALABAMA AVE SE + R ST SE,38.866925,-76.949816,['M6']
1000423,1000423,MARTIN LUTHER KING JR AVE SE + U ST SE,38.866997,-76.988937,"['90', '90*2', 'A33', 'B2', 'B2*1', 'B2*S1', 'P6', 'P6*2', 'V2', 'V2*1']"
1000425,1000425,GOOD HOPE RD SE + MARTIN LUTHER KING JR AVE SE,38.8672,-76.987803,"['92', '92*1']"
1000426,1000426,GOOD HOPE RD SE + 13TH ST SE,38.86726,-76.987427,"['92', '92/', 'B2', 'B2*1', 'B2*S1', 'V2', 'V2*1']"
1000427,1000427,BRANCH AVE SE + T ST SE,38.867387,-76.960111,"['30N', '36', 'S35']"
1000428,1000428,SOUTHERN AVE SE + 42ND ST SE,38.867438,-76.942151,"['F14', 'F14*1', 'M6', 'V7', 'W4', 'W4/']"
1000429,1000429,16TH ST SE + T ST SE,38.867543,-76.982166,"['B2', 'B2/', 'V2']"
1000430,1000430,PENNSYLVANIA AVE SE + TEXAS AVE SE,38.867556,-76.956334,['M6']
1000431,1000431,PENNSYLVANIA AVE SE + TEXAS AVE SE,38.867792,-76.956474,"['D51', 'M6']"
1000432,1000432,NAYLOR RD SE + S ST SE,38.868055,-76.970486,"['30S', '32']"
1000434,1000434,BRANCH AVE SE + S ST SE,38.868175,-76.960093,"['30N', '36']"
1000435,1000435,MINNESOTA AVE SE + S ST SE,38.868139,-76.981285,"['B2', 'B2/', 'V2']"
1000436,1000436,MINNESOTA AVE SE + S ST SE,38.868069,-76.981747,"['B2', 'B2*1', 'B2*S1', 'V2', 'V2*1']"
1000437,1000437,NAYLOR RD SE + S ST SE,38.868342,-76.970838,"['30S', '32', '32*1']"
1000438,1000438,PENNSYLVANIA AVE SE + CARPENTER ST SE,38.868539,-76.958298,"['D51', 'M6']"
1000440,1000440,ALABAMA AVE SE + Q ST SE,38.868735,-76.948178,['M6']
1000442,1000442,MINNESOTA AVE SE + 18TH ST SE,38.869183,-76.979197,"['A31', 'B2', 'B2/', 'V2']"
1000443,1000443,PENNSYLVANIA AVE SE + BRANCH AVE SE,38.869268,-76.960648,"['30N', '36']"
1000444,1000444,MINNESOTA AVE SE + 18TH ST SE,38.869302,-76.979283,"['B2', 'B2*1', 'B2*S1', 'V2', 'V2*1']"
1000445,1000445,SOUTHERN AVE + MASSACHUSETTS AVE SE,38.869423,-76.939605,"['F14', 'F14*1', 'V7', 'W4', 'W4/']"
1000446,1000446,MASSACHUSETTS AVE SE + FORT DUPONT TER SE,38.869374,-76.94028,['M6']
1000447,1000447,PENNSYLVANIA AVE SE + BRANCH AVE SE,38.869538,-76.960752,"['30N', '36', 'D51', 'M6']"
1000448,1000448,25TH ST SE + R ST SE,38.869617,-76.97101,"['30S', '32', '32*1']"
1000449,1000449,MINNESOTA AVE SE + 19TH ST SE,38.870002,-76.977554,"['A31', 'B2', 'B2/', 'V2']"
1000451,1000451,PENNSYLVANIA AVE SE + 31ST ST SE,38.870267,-76.962989,"['30N', '36', 'M6']"
1000452,1000452,MINNESOTA AVE SE + 19TH ST SE,38.870345,-76.977186,"['B2', 'B2*1', 'B2*S1', 'V2', 'V2*1']"
1000453,1000453,PENNSYLVANIA AVE SE + 31ST ST SE,38.870405,-76.962897,"['30N', '36', 'D51', 'M6']"
1000454,1000454,ALABAMA AVE SE + 41ST ST SE,38.870371,-76.945171,['M6']
1000455,1000455,SOUTHERN AVE + BARKER ST SE,38.870495,-76.938238,"['F14', 'F14*1', 'V7', 'W4', 'W4/']"
1000457,1000457,ALABAMA AVE SE + MASSACHUSETTS AVE SE,38.870652,-76.943832,['M6']
1000459,1000459,PENNSYLVANIA AVE SE + 30TH ST SE,38.870883,-76.964473,"['30N', '36', 'M6']"
1000460,1000460,MINNESOTA AVE SE + 22ND ST SE,38.871179,-76.97519,"['A31', 'B2', 'B2/', 'V2']"
1000461,1000461,25TH ST SE + PARK PL SE,38.871335,-76.971004,"['30S', '32', '32*1']"
1000462,1000462,MINNESOTA AVE SE + 22ND ST SE,38.871558,-76.97474,"['B2', 'B2*1', 'B2*S1', 'V2', 'V2*1']"
1000464,1000464,P ST SW + 1ST ST SW,38.872101,-77.011973,['74']
1000466,1000466,P ST SW + 3RD ST SW,38.872118,-77.014975,['74']
1000467,1000467,P ST SW + 4TH ST SW,38.872118,-77.016649,['74']
1000471,1000471,MINNESOTA AVE SE + WHITE PL SE,38.872557,-76.972372,"['30S', '32', 'A31', 'B2', 'B2/', 'V2']"
1000472,1000472,HALF ST SW + O ST SW,38.872703,-77.01072,['74']
1000473,1000473,MINNESOTA AVE SE + NICHOLSON ST SE,38.872693,-76.972501,"['B2', 'B2*1', 'B2*S1', 'V2', 'V2*1']"
1000474,1000474,4TH ST SW + O ST SW,38.872844,-77.017454,['74']
1000475,1000475,O ST SW + 1ST ST SW,38.872923,-77.012329,['74']
1000477,1000477,RIDGE RD SE + SOUTHERN AVE SE,38.87296,-76.935272,['F14*1']
1000479,1000479,DELAWARE AVE SW + CANAL ST SW,38.873401,-77.013379,['74']
1000480,1000480,MINNESOTA AVE SE + PENNSYLVANIA AVE SE,38.873745,-76.970014,"['A31', 'V2', 'V4']"
1000482,1000482,PENNSYLVANIA AVE SE + MINNESOTA AVE SE,38.87375,-76.971684,"['30N', '30S', '32', '32*1', '36', 'B2', 'B2*1', 'B2*S1', 'M6']"
1000483,1000483,MINNESOTA AVE SE + PENNSYLVANIA AVE SE,38.874052,-76.970913,['V4']
1000484,1000484,DELAWARE AVE SW + #1301-1311,38.874001,-77.014516,['74']
1000485,1000485,PENNSYLVANIA AVE SE + MINNESOTA AVE SE,38.874169,-76.971705,"['30N', '30S', '32', '36', 'B2', 'B2/', 'D51', 'M6']"
1000486,1000486,4TH ST SW + N ST SW,38.874536,-77.017443,['74']
1000487,1000487,MINNESOTA AVE SE + 28TH ST SE,38.874797,-76.96793,"['A31', 'V2', 'V4']"
1000489,1000489,MINNESOTA AVE SE + NASH PL SE,38.875582,-76.966338,"['A31', 'V2', 'V4']"
1000490,1000490,MINNESOTA AVE SE + NASH PL SE,38.875658,-76.966524,"['V2', 'V2*1', 'V4']"
1000494,1000494,MINNESOTA AVE SE + 30TH ST SE,38.876269,-76.964981,"['A31', 'V2', 'V4']"
1000495,1000495,M ST SW + DELAWARE AVE SW,38.876348,-77.013356,"['P6', 'P6*2']"
1000496,1000496,M ST SW + 6TH ST SW,38.876303,-77.019362,['74']
1000497,1000497,M ST SW + HOWISON PL SW,38.876342,-77.011146,"['P6', 'P6*2']"
1000498,1000498,M ST SW + BET 3RD & 4TH STS,38.876345,-77.0171,['74']
1000499,1000499,M ST SE + 10TH ST SE,38.876384,-76.993054,"['90', '90*2', '92', '92*1', 'P6', 'P6*2']"
1000502,1000502,M ST SE + 7TH ST SE,38.876384,-76.996336,"['P6', 'P6*2', 'V4']"
1000504,1000504,M ST SE + 4TH ST SE,38.876388,-77.000742,"['P6', 'P6*2', 'V4']"
1000505,1000505,M ST SE + NEW JERSEY AVE SE,38.876384,-77.003726,"['P6', 'P6*2', 'V4']"
1000506,1000506,MINNESOTA AVE SE + M ST SE,38.876505,-76.964821,"['V2', 'V2*1', 'V4']"
1000509,1000509,M ST SE + VAN ST SE,38.876573,-77.008421,"['P6', 'P6/*1']"
1000511,1000511,M ST SW + 6TH ST SW,38.876581,-77.019666,['74']
1000512,1000512,M ST SE + 4TH ST SE,38.876595,-77.000407,"['P6', 'P6/*1', 'V4']"
1000514,1000514,M ST SE + 8TH ST SE,38.876615,-76.994764,"['90', '92', '92/', 'P6', 'P6/*1']"
1000516,1000516,M ST SW + 1ST ST SW,38.876596,-77.01244,"['P6', 'P6/*1']"
1000517,1000517,M ST SW + DELAWARE AVE SW,38.876582,-77.013558,"['P6', 'P6/*1']"
1000518,1000518,BENNING RD SE + HILLSIDE RD SE,38.87683,-76.931102,"['V7', 'W4', 'W4*1']"
1000519,1000519,BENNING RD SE + HILLSIDE RD SE,38.876711,-76.931274,"['V7', 'W4', 'W4/']"
1000520,1000520,3RD ST SW + M ST SW,38.876861,-77.015114,"['P6', 'P6/*1']"
1000521,1000521,11TH ST SE + M ST SE,38.876863,-76.991439,['V4']
1000523,1000523,MINNESOTA AVE SE + LYNDALE PL SE,38.87723,-76.963049,"['A31', 'V2', 'V4']"
1000525,1000525,3RD ST SW + L ST SW,38.878177,-77.015304,"['P6', 'P6*2']"
1000526,1000526,MINNESOTA AVE SE + 31ST ST SE,38.877496,-76.962843,"['V2', 'V2*1', 'V4']"
1000527,1000527,8TH ST SE + L ST SE,38.877848,-76.994874,"['90', '90*1', '92', '92/']"
1000529,1000529,6TH ST SW + K ST SW,38.878267,-77.019785,['74']
1000530,1000530,3RD ST SW + K ST SW,38.878276,-77.015112,"['P6', 'P6/*1']"
1000532,1000532,MINNESOTA AVE SE + RANDLE CIR SE,38.87834,-76.961205,"['A31', 'V2', 'V4']"
1000533,1000533,K ST SE + 12TH ST SE,38.878355,-76.990377,['V4']
1000534,1000534,BENNING RD SE + H ST SE,38.878406,-76.931572,"['V7', 'W4', 'W4/']"
1000537,1000537,H ST SE + 46TH PL SE,38.878605,-76.933678,['V8']
1000538,1000538,H ST SE + 46TH ST SE,38.878608,-76.935389,['V8']
1000539,1000539,H ST SE + 44TH PL SE,38.87861,-76.937505,['V8']
1000541,1000541,MINNESOTA AVE SE + RANDLE CIR SE,38.878712,-76.961123,"['S35', 'V2', 'V2*1', 'V4']"
1000543,1000543,BENNING RD SE + H ST SE,38.879328,-76.931805,"['V7', 'W4', 'W4*1']"
1000544,1000544,POTOMAC AVE SE + 13TH ST SE,38.879041,-76.988528,['V4']
1000550,1000550,I ST SE + 11TH ST SE,38.879346,-76.991247,['V4']
1000551,1000551,I ST SE + 9TH ST SE,38.879349,-76.994258,['V4']
1000552,1000552,I ST SW + WESLEY PL SW,38.879219,-77.016416,"['P6', 'P6*2']"
1000553,1000553,I ST SE + 13TH ST SE,38.879343,-76.988806,['V4']
1000558,1000558,I ST SW + WESLEY PL SW,38.879365,-77.016515,"['P6', 'P6/*1']"
1000559,1000559,PENNSYLVANIA AVE SE + 15TH ST SE,38.879443,-76.983803,"['30N', '30S', '32', '32*1', '36', 'M6', 'V4']"
1000561,1000561,4TH ST SW + I ST SW,38.879624,-77.017449,"['P6', 'P6/*1']"
1000565,1000565,POTOMAC AVE SE + 14TH ST SE,38.880027,-76.985715,['V4']
1000566,1000566,7TH ST SW + I ST SW,38.879897,-77.022035,"['52', '52/', '74']"
1000567,1000567,4TH ST SW + I ST SW,38.879942,-77.017669,"['P6', 'P6*2']"
1000569,1000569,BENNING RD SE + HANNA PL SE,38.880165,-76.932246,"['V7', 'V8', 'W4', 'W4*1']"
1000570,1000570,MINNESOTA AVE SE + G ST SE,38.880123,-76.959918,"['A31', 'V2', 'V4']"
1000571,1000571,15TH ST SE + PENNSYLVANIA AVE SE,38.879911,-76.983766,"['B2', 'B2*1', 'B2*S1']"
1000572,1000572,BENNING RD SE + HANNA PL SE,38.88031,-76.932535,"['V7', 'W4', 'W4/']"
1000574,1000574,ALABAMA AVE SE + G ST SE,38.880347,-76.939352,['V8']
1000575,1000575,MINNESOTA AVE SE + G ST SE,38.880417,-76.9599,"['S35', 'V2', 'V2*1', 'V4']"
1000576,1000576,PENNSYLVANIA AVE SE + POTOMAC AVE SE,38.880519,-76.985481,"['30N', '30S', '32', '36']"
1000578,1000578,POTOMAC AVE SE + 14TH ST SE,38.880648,-76.985377,['M6']
1000580,1000580,FITCH ST SE + 53RD ST SE,38.880862,-76.927296,"['U5', 'U6']"
1000581,1000581,51ST ST SE + G ST SE,38.880818,-76.92938,"['U5', 'U6']"
1000582,1000582,POTOMAC AVE SE + 15TH ST SE,38.880949,-76.983832,"['B2', 'B2*S2', 'B2/']"
1000584,1000584,TEXAS AVE SE + ADRIAN ST SE,38.881026,-76.945028,"['U5', 'U6', 'U6/']"
1000585,1000585,8TH ST SE + G ST SE,38.881126,-76.994875,"['90', '90*1', '92', '92/']"
1000586,1000586,RIDGE RD SE + TEXAS AVE SE,38.881278,-76.945837,"['S35', 'U5', 'U6', 'U6/']"
1000587,1000587,PENNSYLVANIA AVE SE + 13TH ST SE,38.88136,-76.988524,"['30N', '30S', '32', '32*1', '36']"
1000588,1000588,4TH ST SW + G ST SW,38.881502,-77.017663,"['P6', 'P6*2']"
1000589,1000589,8TH ST SE + G ST SE,38.881459,-76.99508,"['90', '90*2', '92', '92*1']"
1000590,1000590,POTOMAC AVE SE + KENTUCKY AVE SE,38.881423,-76.983031,"['B2', 'B2*1', 'B2*S1']"
1000591,1000591,TEXAS AVE SE + BURNS ST SE,38.881465,-76.943962,"['U5', 'U6', 'U6/']"
1000592,1000592,TEXAS AVE SE + BURNS ST SE,38.881473,-76.944248,"['U5', 'U6', 'U6/']"
1000593,1000593,PENNSYLVANIA AVE SE + 13TH ST SE,38.881627,-76.988173,"['30N', '30S', '32', '36']"
1000595,1000595,4TH ST SW + G ST SW,38.8816,-77.017451,"['P6', 'P6/*1']"
1000596,1000596,7TH ST SW + G ST SW,38.881569,-77.022047,"['52', '52/', '74']"
1000597,1000597,MINNESOTA AVE SE + F ST SE,38.881865,-76.958679,"['A31', 'V2', 'V4']"
1000598,1000598,ALABAMA AVE SE + F ST SE,38.881965,-76.939386,['V8']
1000599,1000599,BENNING RD SE + F ST SE,38.882097,-76.933347,"['V7', 'V8', 'W4', 'W4*1']"
1000601,1000601,51ST ST SE + E ST SE,38.882109,-76.929103,"['U5', 'U6']"
1000602,1000602,POTOMAC AVE SE + 17TH ST SE,38.882114,-76.980958,"['B2', 'B2*S2', 'B2/']"
1000604,1000604,TEXAS AVE SE + F ST SE,38.882258,-76.942686,"['U5', 'U6', 'U6/']"
1000605,1000605,53RD ST SE + E ST SE,38.882278,-76.926627,"['U5', 'U6']"
1000607,1000607,BENNING RD SE + F ST SE,38.882266,-76.933729,"['V7', 'W4', 'W4/']"
1000608,1000608,TEXAS AVE SE + BURBANK ST SE,38.882306,-76.942857,"['U5', 'U6', 'U6/']"
1000609,1000609,MINNESOTA AVE SE + E ST SE,38.882602,-76.95834,"['S35', 'V2', 'V2*1', 'V4']"
1000610,1000610,RIDGE RD SE + E ST SE,38.882689,-76.946516,['U5']
1000611,1000611,PENNSYLVANIA AVE SE + E ST SE,38.882742,-76.990933,"['30N', '30S', '32', '36']"
1000612,1000612,POTOMAC AVE SE + E ST SE,38.88275,-76.979407,"['B2', 'B2*S2', 'B2/']"
1000613,1000613,ELY PL SE + RIDGE RD SE,38.882891,-76.947085,"['S35', 'U6', 'U6/']"
1000615,1000615,ELY PL SE + RIDGE RD SE,38.882782,-76.947023,"['U6', 'U6/']"
1000616,1000616,PENNSYLVANIA AVE SE + E ST SE,38.882829,-76.992108,"['30N', '30S', '32', '32*1', '36']"
1000617,1000617,ALABAMA AVE SE + E ST SE,38.882926,-76.939587,['V8']
1000618,1000618,17TH ST SE + E ST SE,38.882964,-76.980842,"['B2', 'B2*1', 'B2*S1']"
1000620,1000620,8TH ST SE + E ST SE,38.883015,-76.994873,"['90', '90*1', '92', '92/']"
1000621,1000621,RIDGE RD SE + ELY PL SE,38.882993,-76.94686,['U5']
1000622,1000622,4TH ST SW + E ST SW,38.883565,-77.017415,"['P6', 'P6/*1']"
1000623,1000623,ELY PL SE + 37TH PL SE,38.883117,-76.949315,"['S35', 'U6', 'U6/']"
1000625,1000625,ELY PL SE + 37TH PL SE,38.883103,-76.949948,"['U6', 'U6/']"
1000633,1000633,E ST SE + #4422,38.883286,-76.937595,['V8']
1000638,1000638,POTOMAC AVE SE + 19TH ST SE,38.883493,-76.977581,"['B2', 'B2*S2', 'B2/']"
1000639,1000639,BENNING RD SE + E ST SE,38.883482,-76.934741,"['V7', 'W4', 'W4/']"
1000640,1000640,8TH ST SE + D ST SE,38.883513,-76.99508,"['90', '90*2', '92', '92*1']"
1000641,1000641,RIDGE RD SE + ELY PL SE,38.883659,-76.94708,['U5']
1000642,1000642,BENNING RD SE + E ST SE,38.883705,-76.93468,"['V7', 'V8', 'W4', 'W4*1']"
1000643,1000643,E ST SE + BENNING RD SE,38.883682,-76.935327,['V8']
1000644,1000644,7TH ST SW + E ST SW,38.883711,-77.021776,['74']
1000646,1000646,RIDGE RD SE + ELY PL SE,38.883766,-76.947362,['U5']
1000647,1000647,51ST ST SE + D ST SE,38.883825,-76.928731,"['U5', 'U6']"
1000648,1000648,7TH ST SW + E ST SW,38.883766,-77.022047,['74']
1000649,1000649,MINNESOTA AVE SE + 34TH ST SE,38.883952,-76.957386,"['V2', 'V2*1', 'V4']"
1000650,1000650,37TH ST SE + #410,38.884056,-76.951821,"['U6', 'U6/']"
1000652,1000652,17TH ST SE + D ST SE,38.88424,-76.98084,"['B2', 'B2*1', 'B2*S1']"
1000653,1000653,PENNSYLVANIA AVE SE + 8TH ST SE,38.884302,-76.994771,"['30N', '30S', '32', '36']"
1000654,1000654,PENNSYLVANIA AVE SE + 8TH ST SE,38.884237,-76.995571,"['30N', '30S', '32', '32*1', '36', '92*1']"
1000655,1000655,37TH ST + BLDG #342,38.884237,-76.951815,"['A31', 'U6', 'U6/']"
1000656,1000656,8TH ST SE + D ST SE,38.884513,-76.994874,"['90', '90*1', '92']"
1000660,1000660,MASSACHUSETTS AVE SE + 19TH ST SE,38.88454,-76.977474,"['96', '96*1', '96*2']"
1000661,1000661,TEXAS AVE SE + D ST SE,38.884588,-76.941029,"['U5', 'U6', 'U6/']"
1000662,1000662,PENNSYLVANIA AVE + 7TH ST SE,38.884777,-76.995925,['92/']
1000664,1000664,8TH ST SE + D ST SE,38.884867,-76.995049,"['90', '90*2', '92']"
1000668,1000668,RIDGE RD SE + D ST SE,38.885092,-76.948244,['U5']
1000670,1000670,RIDGE RD SE + D ST SE,38.884996,-76.948374,['U5']
1000672,1000672,51ST ST SE + C ST SE,38.885146,-76.928449,"['U5', 'U6']"
1000673,1000673,PENNSYLVANIA AVE SE + 6TH ST SE,38.885238,-76.998009,"['30N', '30S', '32', '36']"
1000674,1000674,MASSACHUSETTS AVE SE + 18TH ST SE,38.885224,-76.979157,"['96', '96*1', '96*2']"
1000676,1000676,18TH ST SE + C ST SE,38.885483,-76.979067,"['96', '96/*1', 'B2', 'B2*1', 'B2*S1']"
1000678,1000678,TEXAS AVE SE + DUBOIS PL SE,38.885582,-76.940563,"['U5', 'U6', 'U6/']"
1000679,1000679,12TH ST SW + C ST SW,38.885438,-77.028234,"['52', '52*1']"
1000680,1000680,53RD ST SE + BASS PL SE,38.885655,-76.925891,"['U5', 'U6']"
1000681,1000681,MINNESOTA AVE SE + C ST SE,38.8856,-76.955995,"['V2', 'V4']"
1000682,1000682,19TH ST SE + C ST SE,38.885728,-76.9772,"['96', '96*1', '96*2', 'B2', 'B2*S2', 'B2/']"
1000683,1000683,PENNSYLVANIA AVE SE + 6TH ST SE,38.885731,-76.998296,"['30N', '30S', '32', '36']"
1000684,1000684,BENNING RD SE + C ST SE,38.885826,-76.935732,"['V7', 'V8', 'W4', 'W4*1']"
1000685,1000685,MASSACHUSETTS AVE SE + 17TH ST SE,38.885739,-76.980409,"['96', '96*1', '96*2']"
1000686,1000686,MASSACHUSETTS AVE SE + 17TH ST SE,38.88597,-76.980609,"['96', '96/*1']"
1000687,1000687,TEXAS AVE SE + DUBOIS PL SE,38.885804,-76.940692,"['U5', 'U6', 'U6/']"
1000691,1000691,PENNSYLVANIA AVE SE + NORTH CAROLINA AVE SE,38.886035,-76.999978,"['30N', '30S', '32', '36']"
1000694,1000694,7TH ST SW + MARYLAND AVE SW,38.886212,-77.021751,['74']
1000698,1000698,MINNESOTA AVE SE + C ST SE,38.886175,-76.955784,"['V2', 'V2*1', 'V4']"
1000699,1000699,RIDGE RD SE + C ST SE,38.886192,-76.949531,['U5']
1000700,1000700,37TH ST SE + 37TH PL SE,38.88635,-76.952801,"['A31', 'U6', 'U6/']"
1000702,1000702,PENNSYLVANIA AVE SE + 4TH ST SE,38.886448,-77.000011,"['30N', '30S', '32', '36']"
1000703,1000703,37TH ST SE + 37TH PL SE,38.886432,-76.952948,"['U6', 'U6/']"
1000704,1000704,51ST ST SE + B ST SE,38.886601,-76.928124,"['U5', 'U6']"
1000705,1000705,C ST SE + PLUMMER ELEMENTARY SCHOOL,38.886603,-76.939877,['U6/']
1000706,1000706,RIDGE RD SE + BURNS ST SE,38.886705,-76.949846,['U5']
1000708,1000708,TEXAS AVE SE + C ST SE,38.886659,-76.940635,"['U5', 'U6']"
1000709,1000709,MASSACHUSETTS AVE SE + 15TH ST SE,38.886806,-76.983027,"['96', '96*1', '96*2']"
1000710,1000710,14TH ST SW + C ST SW,38.886958,-77.031736,['16E']
1000711,1000711,PENNSYLVANIA AVE SE + 3RD ST SE,38.887127,-77.001691,"['30N', '30S', '32', '36']"
1000712,1000712,14TH ST SW + INDEPENDENCE AVE SW,38.887051,-77.032135,['16E']
1000713,1000713,53RD ST SE + CENTRAL AVE SE,38.887276,-76.925536,"['U5', 'U6']"
1000714,1000714,51ST ST SE + ASTOR PL SE,38.887172,-76.927993,"['U5', 'U6']"
1000715,1000715,8TH ST SE + INDEPENDENCE AVE SE,38.887388,-76.994886,"['90', '90*1', '92']"
1000716,1000716,4TH ST SW + INDEPENDENCE AVE SW,38.887372,-77.017448,"['P6', 'P6/*1']"
1000717,1000717,MINNESOTA AVE SE + B ST SE,38.887282,-76.954998,"['V2', 'V2*1', 'V4']"
1000718,1000718,MINNESOTA AVE SE + 36TH ST SE,38.887369,-76.954743,"['V2', 'V4']"
1000719,1000719,8TH ST SE + INDEPENDENCE AVE SE,38.887262,-76.995048,"['90', '90*2', '92']"
1000720,1000720,BENNING RD SE + B ST SE,38.887301,-76.936573,"['V7', 'V8', 'W4', 'W4/']"
1000721,1000721,INDEPENDENCE AVE SW + 12TH ST SW,38.887447,-77.028564,"['52', '52*1']"
1000722,1000722,TEXAS AVE SE + B ST SE,38.8874,-76.940289,"['U5', 'U6', 'U6/']"
1000723,1000723,INDEPENDENCE AVE SW + 6TH ST SW,38.887403,-77.02048,"['30N', '30S', '32', '36']"
1000725,1000725,INDEPENDENCE AVE SE + 2ND ST SE,38.88753,-77.004114,"['30N', '30S', '32', '36']"
1000726,1000726,MASSACHUSETTS AVE SE + SOUTH CAROLINA AVE SE,38.887543,-76.984323,"['96', '96/*1']"
1000727,1000727,INDEPENDENCE AVE SE + S CAPITOL ST SE,38.887521,-77.008676,"['30N', '30S', '32', '36']"
1000729,1000729,INDEPENDENCE AVE SW + 3RD ST SW,38.887459,-77.016068,"['30N', '30S', '32', '36']"
1000731,1000731,INDEPENDENCE AVE SW + 1ST ST SW,38.887474,-77.012343,"['30N', '30S', '32', '36']"
1000733,1000733,INDEPENDENCE AVE + 14TH ST,38.887711,-77.031609,"['52', '52/']"
1000734,1000734,INDEPENDENCE AVE SE + NEW JERSEY AVE SE,38.887689,-77.007864,"['30N', '30S', '32', '36']"
1000735,1000735,INDEPENDENCE AVE SW + 4TH ST SW,38.887701,-77.017328,"['30N', '30S', '32', '36']"
1000736,1000736,INDEPENDENCE AVE SE + 1ST ST SE,38.887712,-77.005606,"['30N', '30S', '32', '36']"
1000737,1000737,37TH ST SE + RIDGE RD SE,38.88772,-76.95169,"['A31', 'U6', 'U6/']"
1000741,1000741,18TH ST SE + INDEPENDENCE AVE SE,38.88776,-76.979059,"['96', '96/*1', 'B2', 'B2*1']"
1000742,1000742,INDEPENDENCE AVE SW + 12TH ST SW,38.887712,-77.028795,"['52', '52/']"
1000743,1000743,37TH ST SE + RIDGE RD SE,38.887746,-76.951922,"['U6', 'U6/']"
1000744,1000744,RIDGE RD SE + 37TH ST SE,38.887907,-76.951106,['U5']
1000745,1000745,RIDGE RD SE + 37TH ST SE,38.887765,-76.951182,['U5']
1000746,1000746,4TH ST SW + INDEPENDENCE AVE SW,38.887837,-77.017675,"['P6', 'P6*2']"
1000747,1000747,MASSACHUSETTS AVE SE + 14TH ST SE,38.887864,-76.985676,"['96', '96*1', '96*2']"
1000748,1000748,7TH ST SW + INDEPENDENCE AVE SW,38.887844,-77.022071,['74']
1000749,1000749,BENNING RD SE + B ST SE,38.888064,-76.936722,"['V7', 'V8', 'W4', 'W4*1']"
1000750,1000750,7TH ST SW + INDEPENDENCE AVE SW,38.889226,-77.021772,['74']
1000752,1000752,CENTRAL AVE SE + 52ND ST SE,38.888262,-76.926602,"['U5', 'U6']"
1000753,1000753,14TH ST SW + JEFFERSON DR SW,38.888463,-77.031797,"['16E', '52', '52/']"
1000754,1000754,RIDGE RD SE + ANACOSTIA RD SE,38.88866,-76.951854,"['A31', 'U5', 'U6', 'U6/', 'U7']"
1000755,1000755,CENTRAL AVE SE + 51ST ST SE,38.88866,-76.927866,"['U5', 'U6']"
1000756,1000756,MASSACHUSETTS AVE SE + 13TH ST SE,38.888767,-76.98787,"['96', '96*1', '96*2']"
1000757,1000757,14TH ST NW + JEFFERSON DR SW,38.888951,-77.0321,['16E']
1000758,1000758,MASSACHUSETTS AVE SE + 13TH ST SE,38.889013,-76.988107,"['96', '96/*1']"
1000759,1000759,BENNING RD SE + E CAPITOL ST SE,38.889206,-76.937184,"['V7', 'V8', 'W4', 'W4*1']"
1000760,1000760,CENTRAL AVE SE + 50TH ST SE,38.889144,-76.92944,"['U5', 'U6']"
1000761,1000761,MINNESOTA AVE SE + E CAPITOL ST SE,38.889258,-76.953632,"['U7', 'V2', 'V2*1', 'V4']"
1000762,1000762,E CAPITOL ST SE + KENTUCKY AVE SE,38.889176,-76.989885,"['96', '96*1', '96*2']"
1000763,1000763,MINNESOTA AVE SE + RIDGE RD SE,38.889302,-76.95329,"['V2', 'V4']"
1000764,1000764,CENTRAL AVE SE + 50TH ST SE,38.88935,-76.929592,"['U5', 'U6']"
1000766,1000766,BENNING RD SE + E CAPITOL ST SE,38.888598,-76.937156,"['V7', 'V8', 'W4', 'W4/']"
1000767,1000767,18TH ST SE + E CAPITOL ST NE,38.889389,-76.979057,"['96', '96/*1', 'B2', 'B2*1']"
1000769,1000769,E CAPITOL ST SE + 46TH ST SE,38.889606,-76.936624,"['96', '96*1', '96*2', 'U5', 'U6']"
1000770,1000770,E CAPITOL ST SE + 50TH ST NE,38.889657,-76.929704,"['96', '96*1', '96*2']"
1000771,1000771,E CAPITOL ST SE + 49TH ST SE,38.889659,-76.932299,"['96', '96*1', '96*2', 'U5', 'U6', 'W4', 'W4*1']"
1000772,1000772,E CAPITOL ST SE + 47TH ST SE,38.889662,-76.933892,"['96', '96*1', '96*2', 'U5', 'U6', 'W4', 'W4*1']"
1000773,1000773,E CAPITOL ST SE + 41ST ST NE,38.889665,-76.944623,"['96', '96*1', '96*2']"
1000774,1000774,E CAPITOL ST SE + #4250,38.889666,-76.942276,"['96', '96*1', '96*2']"
1000775,1000775,E CAPITOL ST SE + FT CHAPLIN PK APTS,38.889662,-76.940103,"['96', '96*1', '96*2']"
1000777,1000777,E CAPITOL ST SE + 53RD PL SE,38.889654,-76.925332,"['96', '96*1', '96*2']"
1000778,1000778,E CAPITOL ST SE + 52ND ST SE,38.889654,-76.927371,"['96', '96*1', '96*2']"
1000779,1000779,E CAPITOL ST SE + 55TH ST SE,38.889651,-76.923131,"['96*1', '96*2']"
1000783,1000783,E CAPITOL ST SE + 56TH PL SE,38.889651,-76.921002,"['96*1', '96*2']"
1000786,1000786,E CAPITOL ST SE + 58TH ST SE,38.889643,-76.917454,"['96*1', '96*2']"
1000793,1000793,E CAPITOL ST NE + 15TH ST SE,38.88973,-76.983226,"['B2', 'B2*1']"
1000794,1000794,E CAPITOL ST NE + 14TH ST SE,38.889736,-76.984978,"['B2', 'B2*1']"
1000798,1000798,E CAPITOL ST NE + 17TH ST SE,38.889733,-76.980964,"['B2', 'B2*1']"
1000799,1000799,E CAPITOL ST NE + 58TH ST NE,38.88988,-76.917642,"['96', '96/*1']"
1000801,1000801,E CAPITOL ST NE + 47TH ST NE,38.889928,-76.934773,"['96', '96/*1', 'U5', 'U6', 'U6*2', 'W4', 'W4/']"
1000802,1000802,E CAPITOL ST NE + FT CHAPLIN PK APTS,38.8899,-76.940192,"['96', '96/*1']"
1000803,1000803,EAST CAPITOL ST + 18TH ST,38.889842,-76.979729,['B2*S1']
1000804,1000804,E CAPITOL ST NE + 57TH PL NE,38.889882,-76.920285,"['96', '96/*1']"
1000805,1000805,E CAPITOL ST NE + #4250,38.889904,-76.942373,"['96', '96/*1']"
1000807,1000807,E CAPITOL ST NE + SYCAMORE RD NE,38.889927,-76.931896,"['96', '96/*1', 'U5', 'U6', 'U6*2', 'W4', 'W4/']"
1000809,1000809,E CAPITOL ST NE + 17TH ST NE,38.889888,-76.980513,"['B2', 'B2*S2', 'B2/']"
1000810,1000810,E CAPITOL ST NE + 55TH ST NE,38.889888,-76.922649,"['96', '96/*1']"
1000811,1000811,E CAPITOL ST NE + 53RD ST NE,38.889887,-76.925877,"['96', '96/*1']"
1000814,1000814,E CAPITOL ST NE + 41ST ST NE,38.889901,-76.944408,"['96', '96/*1']"
1000816,1000816,E CAPITOL ST NE + 50TH ST NE,38.889894,-76.929829,"['96', '96/*1', 'W4', 'W4/']"
1000817,1000817,E CAPITOL ST NE + 40TH ST NE,38.889905,-76.947096,"['96', '96/*1']"
1000818,1000818,E CAPITOL ST NE + BENNING RD NE,38.889959,-76.93835,"['96', '96/*1']"
1000820,1000820,E CAPITOL ST NE + BENNING RD NE,38.889955,-76.936649,"['96', '96/*1']"
1000821,1000821,8TH ST NE + E CAPITOL ST NE,38.889986,-76.995047,"['90', '90*2', '92']"
1000822,1000822,8TH ST NE + E CAPITOL ST NE,38.890111,-76.99488,"['90', '90*1', '92']"
1000823,1000823,DIVISION AVE NE + E CAPITOL ST NE,38.890093,-76.9279,"['W4', 'W4*1']"
1000824,1000824,15TH ST NE + E CAPITOL ST NE,38.890121,-76.983554,"['B2', 'B2*S2', 'B2/']"
1000825,1000825,BENNING RD NE + E CAPITOL ST NE,38.890203,-76.937899,"['V7', 'V8']"
1000826,1000826,E CAPITOL ST NE + TENNESSEE AVE NE,38.89044,-76.989503,"['96', '96/*1']"
1000827,1000827,BENNING RD NE + 45TH ST NE,38.89055,-76.937867,"['V7', 'V8']"
1000828,1000828,KENILWORTH AVE NE + AMES ST NE,38.890523,-76.958222,['U4']
1000830,1000830,50TH ST NE + AMES ST NE,38.890656,-76.929998,"['U5', 'U6']"
1000832,1000832,MINNESOTA AVE NE + E CAPITOL ST NE,38.890848,-76.952128,"['A31', 'U5', 'U6', 'U7', 'V2', 'V4']"
1000833,1000833,4TH ST NW + MADISON DR NW,38.890839,-77.017663,"['P6', 'P6*2']"
1000834,1000834,4TH ST NW + MADISON DR NW,38.89093,-77.017455,"['30N', '30S', '32', '36', 'P6', 'P6/*1']"
1000836,1000836,KENILWORTH AVE NE + ALDEN PL NE,38.891213,-76.957545,['U4']
1000839,1000839,8TH ST NE + MASSACHUSETTS AVE NE,38.89149,-76.994867,"['90', '90*1', '92']"
1000840,1000840,BENNING RD NE + 44TH ST NE,38.891475,-76.938961,"['V7', 'V8']"
1000841,1000841,14TH ST NE + AMES PL NE,38.891407,-76.985568,"['B2', 'B2*1']"
1000842,1000842,50TH ST NE + BLAINE ST NE,38.89158,-76.93012,"['U5', 'U6', 'U6*2']"
1000843,1000843,BENNING RD NE + 44TH ST NE,38.891638,-76.93958,"['V7', 'V8']"
1000845,1000845,19TH ST NE + CONSTITUTION AVE NE,38.891874,-76.97719,['D6']
1000846,1000846,7TH ST NW + CONSTITUTION AVE NW,38.891867,-77.021768,['74']
1000847,1000847,BLAINE ST NE + KENILWORTH AVE NE,38.891732,-76.957157,['U4']
1000848,1000848,15TH ST NE + CONSTITUTION AVE NE,38.891832,-76.98359,"['B2', 'B2*S2', 'B2/']"
1000852,1000852,CONSTITUTION AVE NW + 22ND ST NW,38.891981,-77.049005,['7Y']
1000855,1000855,CONSTITUTION AVE NW + 21ST ST NW,38.891979,-77.046858,['7Y']
1000856,1000856,BLAINE ST NE + ANACOSTIA AVE NE,38.892054,-76.961039,['U4*1']
1000858,1000858,CONSTITUTION AVE NW + 20TH ST,38.891979,-77.045071,['7Y']
1000860,1000860,CONSTITUTION AVE NW + 19TH ST,38.891976,-77.043684,['7Y']
1000862,1000862,DIVISION AVE NE + BLAINE ST NE,38.892023,-76.928044,"['W4', 'W4/']"
1000866,1000866,CONSTITUTION AVE NW + 6TH ST NW,38.892204,-77.019685,['P6/*1']
1000867,1000867,CONSTITUTION AVE NW + 7TH ST NW,38.892215,-77.02157,['P6/*1']
1000868,1000868,CONSTITUTION AVE NW + 21ST ST NW,38.892237,-77.047244,['7Y']
1000870,1000870,CONSTITUTION AVE NW + 20TH ST NW,38.89224,-77.044733,['7Y']
1000873,1000873,8TH ST NE + CONSTITUTION AVE NE,38.892246,-76.995047,"['90', '90*2', '92']"
1000876,1000876,34TH ST NE + BLAINE ST NE,38.892202,-76.957576,['U4']
1000878,1000878,14TH ST NW + CONSTITUTION AVE NW,38.892368,-77.032088,"['16E', '52', '52*1']"
1000880,1000880,7TH ST NW + CONSTITUTION AVE NW,38.89232,-77.022061,"['70', '74']"
1000881,1000881,DIVISION AVE NE + BANKS PL NE,38.892485,-76.927698,"['W4', 'W4*1']"
1000886,1000886,9TH ST NW + CONSTITUTION AVE NW,38.892772,-77.023827,"['70', '70*1', '79', '79*1']"
1000888,1000888,BENNING RD NE + 42ND ST NE,38.892741,-76.942273,"['V7', 'V8']"
1000889,1000889,PENNSYLVANIA AVE NW + 6TH ST NW,38.89278,-77.020302,"['P6', 'P6*2']"
1000890,1000890,BENNING RD NE + 42ND ST NE,38.892966,-76.942465,"['V7', 'V8']"
1000892,1000892,63RD ST NE + CLAY ST NE,38.893147,-76.91085,"['V2', 'V4']"
1000893,1000893,63RD ST NE + CLAY ST NE,38.893039,-76.911019,"['F14', 'V2', 'V4', 'V4*1']"
1000896,1000896,VIRGINIA AVE NW + 19TH ST NW,38.893079,-77.042783,['80']
1000897,1000897,22ND ST NE + 21ST ST NE,38.893172,-76.975481,['D6']
1000898,1000898,C ST NE + 19TH ST NE,38.893189,-76.97751,['D6']
1000899,1000899,15TH ST NE + C ST NE,38.893301,-76.983586,"['B2', 'B2*S2', 'B2/']"
1000900,1000900,C ST NE + 17TH PL NE,38.893191,-76.979613,['D6']
1000901,1000901,12TH ST NW + CONSTITUTION AVE NW,38.893231,-77.02799,"['59', '63', '64', 'S2']"
1000902,1000902,BENNING RD NE + 41ST ST NE,38.893239,-76.943852,"['V7', 'V8']"
1000903,1000903,MINNESOTA AVE NE + CLAY PL NE,38.893279,-76.950639,"['U5', 'U6', 'U7', 'V2', 'V2*1', 'V4']"
1000904,1000904,8TH ST NE + C ST NE,38.893416,-76.994881,"['90', '90*1', '92']"
1000905,1000905,50TH ST NE + BANKS PL NE,38.893495,-76.929918,"['U5', 'U6']"
1000907,1000907,C ST NE + 18TH ST NE,38.893456,-76.978802,['D6']
1000908,1000908,C ST NE + 17TH ST NE,38.893456,-76.981195,['D6']
